Name, Longitude, Latitude
Zuytdorp Point,113.3,-26.4
Zuytdorp Cliffs,113.66667,-27.83333
Mount Zion,138.20853,-33.19381
Mount Zephyr,121.7936,-28.38701
Mount Zeil,132.3958,-23.4018
Zeewijk Channel,113.85,-28.78333
Zed Hill,132.28333,-14.88333
Zanthus,123.56667,-31.03333
Zadows Hill,139.38333,-35
Yuwanyadi Rockhole,128.26667,-31.81667
Yuwaiyunn Creek,131.66667,-14.43333
Yuwah Point,139.43333,-16.66667
Yurrauwe Pans,131.5,-28.96667
Yurongan Waterhole,132.4,-16.2
Yunumbar Well,116.01667,-25.96667
Yunta Creek,139.7,-32.71667
Yunta,139.55,-32.58333
Yunndaga,121.05,-29.75
Yungunup Pool,118.75,-34.4
Yungermere,118.13333,-34.4
Yungarup Hill,122.5,-33.91667
Yundi,138.63333,-35.31667
Yundhajibbie Soak,122.63333,-28.06667
Yunda Out Camp,116.9,-25.71667
Yundamindera,122.03333,-29.11667
Yuna,115,-28.33333
Yumburra Reservoir,135.38333,-32.95
Yumbarra Rockhole,133.51667,-31.75
Yumali,139.76667,-35.51667
Yulleroo Well,122.93333,-17.76667
Yulgan Brook,116.51667,-31.31667
Yule River,118.28333,-20.68333
Yule Entrance,124.4,-16.33333
Yule Brook,115.96667,-32.03333
Yulawarra Creek,116.5,-23.36667
Yulakin Gully,117.56667,-33.03333
Yuki,138.73333,-34.71667
Yuin Well,116.03333,-27.98333
Yuin,116.0353,-27.97985
Yuendumu,131.81667,-22.26667
Yudnapinna Hill,137.13333,-32.1
Yudnapinna,137.15,-32.13333
Yudenda Rockhole,126.6,-32.01667
Yowungup,116.13333,-33.53333
Yow Rockhole,130.61667,-22
Yownama Creek,121.05,-21.26667
Yowie Rockhole,122.35,-30.46667
Yowerreena Hill,119.9,-25.3
Yowerie,117.45,-27.26667
Yoweragabbie Well,117.65,-28.21667
Yoweragabbie,117.65,-28.21667
Yoweragabbie,117.68333,-28.23333
Yowalga Rockholes,125.7,-26.8
Yowakirrennina Creek,138.48333,-28
Yourmill Waterhole,132.66667,-12.66667
Yourdar Hill,116.23333,-26.33333
Yourdamung Lake,116.2685,-33.19935
Yourambulla Peak,138.38408,-31.95001
Youraling,116.98333,-32.3
Youno Downs,119.26667,-27.05
Youngs Lake,137.18333,-30.88333
Youngs,117.51667,-35.01667
Young Rocks,137.25,-36.38333
Young River,117.78333,-34.5
Young River,121.16667,-33.81667
Young Range,125.26667,-25.01667
Younghusband Peninsula,139.5,-36
Mount Younghusband,135.86667,-28.16667
Lake Younghusband,136.09541,-30.8351
Cape Younghusband,136.81667,-36.05
Mount Young,137.4838,-33.09957
Mount Young,135.73061,-15.1517
Youndegin Creek,117.3,-31.65
Youndegin,117.31667,-31.8
Youltangunna Hill,136.55,-27.55
Youlingoorina,118.16667,-21.15
Youlgarou Rockhole,127.45,-31.88333
Youlgannah Rockhole,126.26667,-31.96667
Mount Youle,121.65,-30.68333
Youl Creek,138.46667,-19.45
Youinmery,119.01667,-28.58333
Youering Rock,117.38333,-31.53333
Youdra Well,116.3,-26.48333
Youan Well,115.86667,-27.33333
Youanmi Well,119.05,-28.61667
Youanmi Downs,118.81667,-28.55
Youanmi,118.81667,-28.61667
Youangarra,118.83333,-28.76667
Yoting Well,117.6,-31.9
Yoting,117.61667,-31.96667
Yornup,116.16667,-34.05
Yornaning,117.15,-32.73333
Yorlok,117.13333,-32.9
York Sound,125.08333,-14.83333
Yorkrakine Rocks,118.75,-31.21667
Yorkrakine,117.58333,-31.38333
Yorke Valley Reservoir,137.66667,-34.43333
Yorketown,137.60486,-35.01845
Yorke Peninsula,137.25,-35.08333
Point Yorke,137.2,-35.23333
Mount York,125.48333,-15.5
York,116.76874,-31.88467
Yoothapina,118.5053,-26.52064
Yooralling Well,117.26667,-31.76667
Yoongarilup,115.43333,-33.71667
Yoondoo Well,113.83333,-24.65
Yoolperlunna Hill,133.86667,-27
Yoolperlunna Creek,133.93333,-26.95
Mount Yooadda Darlinu,114.35,-27.5
Yongala Cowie,137.55,-34.91667
Yongala,138.75,-33.03333
Yonderup Lake,115.68333,-31.55
Yokradine,119.36667,-29.95
Yokain Siding,116.06667,-33.33333
Yoganup,115.55,-33.65
Yockrikine Range,117.5,-33.03333
Ylbalgul,119.68333,-20.08333
Yirrkala,136.89119,-12.25505
Yinnietharra,116.18333,-24.65
Yinnewepping Pool,116.28333,-26.11667
Yingarrie Bluff,119.38333,-27.73333
Yingarding Soak,117.83333,-30.03333
Yindi Rock,122.48333,-30.58333
Mount Yindarlgooda,121.86667,-30.8
Lake Yindarlgooda,121.91667,-30.75
Yindabiddy Pool,118.71667,-23.9
Yinberrie Hill,132.08333,-14.11667
Yinadong Well,120.53333,-19.8
Yilmia,121.46667,-31.23333
Yillinnienar Pool,118.03333,-20.53333
Yilliminning Rock,117.36667,-32.93333
Yilliminning River,117.41667,-33
Yilliminning,117.36667,-32.9
Yilliga Well,115.26667,-23.6
Yilga Well,116.13333,-26.53333
Yilgatherra Well,115.76667,-22.83333
Yilgalong Pool,120.9,-21.01667
Yilgalong Creek,120.91667,-21.03333
Yilbung Bore,138.25,-21.01667
Yilbrinna Pool,118.51667,-23.98333
Yilbee Well,116.2,-23.51667
Yijulka Creek,135.43333,-28.13333
Yijinna Pool,115.91667,-23.53333
Yidie Larong Well,122.15,-19.78333
Yidby Hill,117.21667,-29.31667
Ygnaterring Spring,117.3,-31.36667
Yew Creek,131,-11.9
Yeuralba Creek,132.73333,-14.2
Yetna,114.7,-28.61667
Yeticup Lake,116.36667,-34.25
Yerritup Creek,121.16667,-33.76667
Yerringerri Rockhole,134.75,-20.7
Yerrilyer Well,115.28333,-27.41667
Yerrida Spring,119.76667,-25.86667
Yerramudder Hill,119.1,-29.08333
Yerraminnup River,116.45,-34.25
Yerrakajerinna Pool,115.93333,-23.46667
Yerra Bluff,116.16667,-21.75
Yerniakka Rockhole,124.21667,-19.63333
Yeriminup Hill,117,-34.23333
Yerilla,121.81667,-29.5
Yerilgee Rockhole,119.98333,-30.06667
Yerila Creek,139.98333,-29.63333
Yerila,139.68333,-29.78333
Yeriecoola Swamp,139.95,-26.6
Yericoin,116.38333,-30.93333
Yerelina Creek,138.75,-29.75
Yerelina,139.15,-30.08333
Yerda Well,135,-31.08333
Yerdani Well,120.61667,-31.18333
Yerbillon,118.75,-31.38333
Yerawonyah Rockhole,121.48333,-22.43333
Yerapin Spring,117.93333,-31.81667
Yerangatup,122.38333,-33.81667
Yeo Hills,124.41667,-28.1
Yeo Hill,126.56667,-26.18333
Yeoh Hills,117.26667,-29.21667
Lake Yeo,124.38333,-28.06667
Lake Yenyening,117.3998,-32.07154
Yenyannig,119.3,-30.25
Yenteyerrup Swamp,119.01667,-34.4
Yenna Pool,117.53333,-21.66667
Yeneena Creek,121.68333,-22.41667
Yendinnup Swamp,118.98333,-34.33333
Yendicup Swamp,116.58333,-34.16667
Yendang Hill,120.3,-29.31667
Yenamber Well,117.26667,-27.4
Yelverton,115.1,-33.75
Yelvertoft,138.86667,-20.21667
Yeltukka,135.63333,-34.16667
Yeltanna Hill,136.45,-32.85
Yeltanna Bore,136.43333,-32.86667
Yeltacowie,137.35,-31.35
Yelta,137.6,-34.06667
Yelpawaralinna Hill,138.68333,-27.1
Yelma Soak,121.6,-26.46667
Yellow Waterhole Creek,138.41667,-17.6
Yellow Waterhole,139.05,-21.08333
Yellow Waterhole,133.88333,-18.23333
Yellow Waterhole,132.21667,-16.8
Yellow Waterhole,132.7,-16.4
Yellow Waterhole,134.76667,-14.53333
Yellowtail Rockhole,125.63333,-30.51667
Yellow Hole Bore,137.98333,-20.4
Yellow Hill,113.8,-23.1
Yellowdine,119.65,-31.3
Yellooginna Hill,131.6,-27.13333
Yellilup Swamp,119.03333,-34.33333
Yelleen Yard Pool,123.65,-17.71667
Yelleen Crossing,123.65,-17.7
Yellari Soak,117.83333,-30.31667
Yellanup Lake,117.93333,-34.71667
Yellagoodine,123.93333,-18.46667
Yelery Well,116.81667,-27.65
Yeleada Hill,138.93333,-32.23333
Yeldulknie Reservoir,136.55,-33.7
Yeldulknie Creek,136.53333,-33.75
Yelbeni,117.66667,-31.18333
Yegin Well,119.16667,-20.05
Yegin Pool,119.18333,-20.06667
Yeerim Soak,129.53333,-18.61667
Yeerakine Rock,118.3,-32.55
Yeeradgi Rockhole,134.43333,-20.23333
Yeelirrie,120.1,-27.28333
Yeelingee Pool,115.96667,-22.93333
Yeelarranna Pool,117.76667,-21.78333
Yeelanna,135.73333,-34.15
Yeela,119.21667,-30.2
Yeeding,119.21667,-30.25
Yeedie Bulgar,119.63333,-29
Yeeda River,123.63333,-17.51667
Yeeda,123.6468,-17.61527
Yednalue,138.63333,-32.06667
Yedlakoo Creek,137.43333,-29.76667
Yearlit Dam,114.58333,-23.98333
Yeardup Brook,116.23333,-34.26667
Yearawa Pool,116.81667,-21.5
Yeanilling Rock,117.2,-32.58333
Lake Yealering,117.6273,-32.60071
Yealering,117.61667,-32.6
Yeagerup,116.05,-34.53333
Yeadedegurra Soak,114.35,-23.41667
Yayoudle,126.05,-31.81667
Yawerlin Creek,118.31667,-31.93333
Yattalanga,138.76667,-34.68333
Yatina,138.66667,-32.93333
Yatheroo Well,116.91667,-25.96667
Yathalaw Pond,116.38333,-21.83333
The Yates,121.81667,-33.48333
Mount Yates,115.2682,-33.9852
Mount Yates,128.13333,-16.36667
Yatala Shoal,138.16667,-35.75
Yatala Reef,132.58333,-32.65
Yatala Channel,133.56667,-32.2
Yarunga Creek,134.83333,-12.13333
Yartoo Reservoir,135.43333,-32.43333
Yartoo Out Station,135.35,-32.33333
Yarterberrie Rockholes,135.65,-32.7
Yarrum,139.55,-17.81667
Yarrowie Creek,138.35,-33.1
Yarrie Well,138.98333,-21.98333
Yarrie,120.2061,-20.67447
Yarri,122.35,-29.78333
Yarrenbullia Waterhole,113.88333,-24.63333
Yarra Yarra Lakes,115.8,-29.66667
Yarra Yarra Creek,115.93333,-25.95
Yarrawurta Cliff,137.2,-30.16667
Yarrawolya Pool,115.53333,-26.81667
Yarrawinga Waterhole,139.45,-21.06667
Yarra Well,116.16667,-26.1
Yarrara Well,123.81667,-31.1
Yarraquin Well,118.18333,-27.55
Yarraquin,117.98333,-27.41667
Yarranna Hill,134.63333,-31.9
Yarrandine,128.36667,-28.26667
Yarramony Siding,116.71667,-31.5
Yarrameedie,117.21667,-26.1
Yarraman Creek,139.68333,-21.18333
Yarraloola,115.8789,-21.5698
Yarrakin Well,117.4,-31.83333
Yarragil Brook,116.11667,-32.81667
Yarrada Hill,123.93333,-17.28333
Yarrabubba Well,118.06667,-26.33333
Yarrabubba,118.78333,-27.13333
Yarrabolina Hill,135.96667,-29.58333
Yarrabiddie Well,114.56667,-25
Lake Yarowinie,139.70085,-27.62839
Yaroona Hill,130.17075,-27.45866
Yaroona,138.66667,-35.13333
Yarnup Swamp,116.86667,-34.38333
Yarna Water,135.18333,-32.01667
Yarna Hill,135.16667,-32.03333
Yarlot Well,118.2,-29.05
Yarlot Well,117.55,-28.6
Yarloop,115.89693,-32.95372
Yarloo Creek,120.01667,-27.86667
Yarlingulla Well,118.11667,-27.55
Yarling Brook,117.53333,-32.66667
Yarley,137.81667,-32.25
Yarle Lakes,131.48584,-30.24862
Yarlbrinda Well,134.73333,-31.95
Yarlbrinda Hill,134.73333,-31.95
Yarlarweelor Creek,118.08333,-25.23333
Yarlarweelor,117.9931,-25.57703
Yaringie Hill,135.66667,-32.06667
Yaringa South,114.26667,-26.2
Yaringa North,114.3,-25.93333
Yaringa Creek,138.45,-21.03333
Yaringa Bore,138.51667,-20.93333
Yarinda Hill,135.81667,-32.2
Yarinda,139.55,-35.83333
Yarima Tank,134.75,-32.43333
Yard Yarding Spring,118.01667,-31.95
Yardoo Rock,117.13333,-27.46667
Yardogarra Well,122.06667,-18.33333
Yardlowie Hill,139.7,-32.4
Yarding,117.98333,-31.91667
Yardina Soak,122.2,-31.68333
Yardina Rock,122.21667,-31.68333
Yardilla Tank,122.9,-31.95
Yardie Creek,113.8,-22.31667
Yardie Creek,114,-21.88333
Yardiacco Hill,118.3,-28.75
Yarder Gully,114.38333,-28.2
Yardea Well,135.98333,-32.41667
Mount Yardea,135.51643,-32.37122
Yardea,135.53333,-32.38333
Yard Creek,139.7,-18.91667
Yardarino Station,115.03333,-29.2
Yara Spring,124.4,-16.85
Yaralla,138.63333,-35.41667
Yaralin,139.93333,-34.13333
Mount Yaragner,115.9047,-24.49565
Yaragadee,115.4,-29.08333
Yappo Creek,139.11667,-21.23333
Yappala Hill,138.31667,-31.88333
Yapoona Creek,138.18333,-32.55
Yanyarrie Creek,138.48333,-32.33333
Yanyare Well,116.51667,-20.85
Yanyare River,116.5,-20.83333
Yantiranna Pool,116.01667,-23.28333
Yanthangarra Pool,117.15,-28.3
Yantea Well,135.51667,-31.83333
Yantanabie,134.63333,-32.48333
Yanrey,114.7955,-22.50759
Yanoning Rock,118.51667,-30.58333
Yann Pool,119.16667,-20.21667
Yanneymooning,118.56667,-30.7
Yanneri Pool,119.7,-24.43333
Yannarie River,114.8,-22.46667
Yannapaira Waterhole,134.65,-14.31667
Yanmah,116.01667,-34.18333
Yankie Tank,113.95,-24.1
Yankee Spring,127.55,-15.76667
Yankaninna,139.01667,-30.35
River Yankalilla,138.28333,-35.48333
Yankalilla,138.34982,-35.45705
Lake Yaninee,135.24075,-32.98642
Yaninee,135.26667,-32.95
Yangya,138.41667,-33.23333
Yangoonabie Bore,130.06667,-31.46667
Yanget Pool,113.65,-24.85
Yanget Pool,114.26667,-24.78333
Yanget Hills,114.9,-28.66667
Yangedine Brook,116.81667,-31.96667
Yanganooka Well,114.2,-27.98333
Yanganooka Hill,114.61667,-28.28333
Yangan Hill,122.45,-30.43333
Mount Yangalee,135.61325,-26.74494
Lake Yandiya,138.72807,-28.55827
Yandinga Well,135.33333,-32.58333
Yandina Hill,139.03333,-30.31667
Yandil Soak,119.81667,-26.46667
Yandilgunna Spring,118.61667,-24.91667
Yandilgunna Pool,118.61667,-24.91667
Yandil,119.8245,-26.36035
Yandie Well,116.38333,-27.06667
Yandie Well,115.43333,-23.48333
Yandicoogina Creek,119.26667,-22.8
Yandicoogina Creek,119.96667,-21.06667
Yandicoogina,120.16667,-21.41667
Yandiah,138.33333,-32.96667
Yandi,114.8003,-27.75847
Yandhanoo Hill,117.21667,-29.55
Yandhalia Rockhole,115.95,-26.16667
Yandeyarra,118.41667,-21.23333
Yandeyarra,118.4038,-21.28505
Yandedong Well,119.28333,-20.26667
Yandayarra Well,118.51667,-27.75
Yandanunyah Rockhole,121.41667,-22.4
Yandanooka,115.55,-29.31667
Yandan,115.58333,-30.75
Yandallah Creek,123.81667,-31.08333
Yandal Lagoon,121.15,-27.68333
Yandal,121.11667,-27.55
Yandaja Waterhole,116.05,-21.71667
Yandagooge Creek,122.13333,-22.15
Yancy Lake,115.73333,-30.81667
Yanchep Beach,115.6256,-31.55333
Yanchep,115.63171,-31.54678
Yanawinda Brook,116.2,-31.03333
Yampoopie Well,139.96667,-18.83333
Yampi Sound,123.63333,-16.13333
Yampi Canal,123.73333,-16.15
Yammara Creek,117.71667,-29.38333
Yam Hill,130.41667,-22.03333
Yam Hill,128.58333,-20.8
Yamerina Well,118.13333,-20.48333
Yam Creek,131.55,-13.43333
Yamboongunna Pool,118.7,-24.93333
Yambetharra Pool,114.01667,-23.56667
Yambarren Range,130.4,-15.21667
Yamballup Creek,117.58333,-34.65
Yamamilla Creek,139.96667,-20.36667
Yalwarra Lagoon,134.7,-14.73333
Yalura Well,135.38333,-25.45
Yalura,119.28333,-26.85
Yalungadunna,127.88333,-26.23333
Yalthoo Spring,114.21667,-27.61667
Yalteebarrabarra,135.38333,-28.95
Yaltaordla Hill,138.6,-31.66667
Yalpara,138.93333,-32.53333
Yalong Well,116.88333,-27.66667
Yaloginda Station,118.43333,-26.66667
Yaloginda,118.51667,-26.71667
Yalodinya,123.41667,-32.83333
Yalobia Well,114.03333,-24.25
Yalobia Well,113.76667,-23.21667
Yalobra Hill,113.78056,-23.20139
Yalobia,114.05,-24.26667
Yallurnie Waterhole,121.93333,-30.83333
Yallunda Flat,135.88333,-34.35
Yallum Hill,122.43333,-25.36667
Yallowboyango,117.88333,-28.83333
Yallote,118.96667,-27.45
Yallobup Swamp,120.45,-33.81667
Yallmunging,116.85,-31.33333
Yallingup,115.1,-33.7
Yallingup,115.03333,-33.65
Yalleen,116.38333,-21.83333
Yalleen,116.66667,-21.65
Yallawun Pool,119.3,-28.28333
Yallawun Creek,119.3,-28.3
Yallawery Well,116.95,-24.28333
Yallarrie Well,115.63333,-24.21667
Yalla Rockhole,131.63333,-31.41667
Yallari Well,121.4,-31.11667
Yallantharrow Well,118.1,-27.98333
Yallamungie Pool,124.33333,-18.06667
Yallalong,115.5156,-27.42735
Yallahbiddy Well,119.33333,-27.45
Yallaburra Soak,121.98333,-31.38333
Yalkuri,139.11667,-39.6
Yalkra Well,114.15,-24.58333
Yalkalya Dam,114.55,-23.6
Yalgowra,117.95,-27
Yalgoo Spring,115.25,-22.96667
Yalgoo,116.68333,-28.33333
Yalgarra Well,115.65,-27.3
Yalgarra Spring,115.48333,-27.55
Yalgar Pool,117.95,-26.11667
Yalganimirra Rockhole,127.71667,-31.68333
Yalgamine Well,115.38333,-27.55
Yalgamine Creek,115.23333,-27.51667
Yalga,121.91667,-31.4
Yalco Creek,135.9,-16.21667
Yalbra,116.25,-25.68333
Yalbra,116.2,-25.6
Yalbarrin,118.11667,-31.95
Yalbalgo,114.6794,-25.18734
Yalanda Reservoir,136.71667,-33.28333
Yalanda Hill,136.7,-33.3
Yaladthulgo Springs,119.16667,-25.11667
Yalading Pool,120.63333,-20.71667
Yalabidie Well,113.5,-24.6
Yakoorga Rockhole,128.35,-31.8
Yakabindie,120.55,-27.63333
Yagar Rockhole,118.66667,-28.51667
Yaganoo,119.11667,-26.58333
Yagahong,118.65,-26.88333
Yadnarie Creek,136.4,-33.78333
Yadlamalka,137.88333,-32.03333
Yadina Rockhole,131.4,-29.96667
Yadgymurrin Creek,119.95,-25.36667
Yadgena Hill,116.16667,-30.68333
Yadgena Brook,115.98333,-30.66667
Yaddemooga Hills,117.21667,-26.36667
Yadadinia Rockhole,123.58333,-32.45
Yadacootea Well,118.38333,-27.7
Yacko Hill,138.73333,-32.13333
Yacke Yackine Dam,119,-30.31667
Yackelup Creek,116.51667,-34.18333
Yackara Creek,138.46667,-32.31667
Yackan Yarra Well,118.31667,-28.25
Yackamunda Waterhole,138.7,-16.98333
Yackamoorundie Creek,138.18333,-33.4
Yacka,138.43333,-33.56667
Yabooma Island,134.9482,-12.037
Yabmana Reservoir,136.68333,-33.65
Yabmana Creek,136.8,-33.8
Yabmana,136.7,-33.66667
Yabilyah Spring,114.93333,-24.6
Yabboo Well,116.85,-26.68333
Yabboo Hill,122.56667,-29.81667
Yabberup,116,-33.53333
Yabba Well,114.93333,-24.66667
Yabbagoody Claypan,123.71667,-17.33333
Yaaringiree,138.98333,-35.48333
Yaalup Lagoon,118.58333,-33.75
Xmas Well,135.23333,-26.28333
Xmas Creek,136.71667,-18.85
Xantippe,117.03333,-30.03333
Wyworrie,116.2892,-29.67458
Wyranie,139.4,-32.38333
Wyralinu,122.78333,-32.05
Wyooda Thangoo,119.43333,-27.41667
Wyonning Creek,117.18333,-32.73333
Wyonga River,136.28333,-13.16667
Wyola Lake,130.33456,-29.13066
Wyola,117.36667,-31.63333
Wyockman Creek,129.3,-17.16667
Wynyangoo,118.18333,-27.93333
Mount Wynne,124.4605,-18.09888
Wyngraming Waterhole,129.61667,-17.9
Wyndidda Spring,122.85,-26.5
Wyndidda Creek,122.96667,-26.45
Wyndham Well,121.38333,-19.48333
Wyndham River,115.46667,-25.08333
Wyndham Range,123.9,-16.66667
Wyndham,128.12428,-15.4869
Wynbring Station,133.53333,-30.55
Wynbring Rocks,133.53333,-30.55
Wynbarra Waterhole,131.33333,-15.4
Wynarka,139.73333,-35.13333
Lake Wynalkana,139.7774,-27.3962
Wymans Well,119.83333,-21.3
Wyloo Well,114.98333,-21.91667
Wylookarri Rockhole,129.86667,-23.81667
Wyloo,116.233,-22.69063
Wyllie Well,119.41667,-20.06667
Wylies Well,134.43333,-26.33333
Wyjarrahbee Well,122.06667,-19.78333
Wyening,116.48333,-31.18333
Wyemandoo,118.53333,-28.51667
Wyella Waterhole,133.38333,-16.61667
Wye Hill,132.26667,-14.9
Wydgee,117.81667,-28.85
Wycliffe Well,134.23333,-20.8
Wycliffe Creek,134.1,-20.73333
Wybron Island,123.33333,-16.46667
Wyatts Hill,137.98333,-26.73333
Wyambana,139.43333,-31.18333
Wyalta Waterhole,138.41667,-28.65
Wyalla Bay,133.36667,-11.63333
Wyalkatchem,117.3836,-31.18063
Wyaga Bore,138.9,-21.86667
Wyacca Hill,138.73333,-31.78333
W. W. Waterhole,133.25,-15.68333
Wurugoij Creek,133.9,-11.93333
Wurtheroo Creek,138.75,-28.4
Wurruling Waterhole,129.31667,-17.7
Wurrildee,138.63333,-35.53333
Wurrengoodyea Hills,126.36667,-32.2
Wurrah,117.35,-27.36667
Wurndoang,138.88333,-35.46667
Wurley Rumbo,139.11667,-28.88333
Wurley Point,136.55,-29.03333
Wurley Lagoon,134.4,-29.38333
Wurilba,138.11667,-33.38333
Wurembong Waterhole,132.35,-16.06667
Wurarga,116.28333,-28.41667
Wuraming,116.28333,-32.8
Wunungun Point,139.31667,-16.73333
Wuntuntoopininna Waterhole,136.3,-27.93333
Wuntanoorinna Waterhole,136.61667,-27.88333
Wundowie,116.3799,-31.76163
Wundirgi Waterhole,134.53333,-19.06667
Wundin Pool,119.88333,-20.6
Wudinna Hill,135.56667,-33
Wudinna East,135.61667,-33.01667
Wudinna,135.46381,-33.05013
Wubin,116.63333,-30.1
Wrights Reef Well,119.23333,-28.06667
Wrights Hut Dam,139.43333,-32.43333
Wright Island,138.60854,-35.58267
Wright Hill,139.55,-33.03333
Wright Hill,131.03333,-27.61667
Lake Wright,129.45,-27.51667
Wreck Point,115.6,-31.51667
Wreck Point,113.93333,-28.98333
Wreck Island,113.95,-29
Wow Wow Tanks,135.23333,-32.56667
Wowra Brook,115.93333,-31.33333
Wownaminya,116.83333,-28.45
Wowaljarrow Pool,127.93333,-19.26667
Wothella Rockhole,126.45,-31.95
Wotan Well,121.15,-19.75
Worthington Well,118.31667,-26
Worth Bore,116,-24.33333
Mount Worsnop,124.7611,-26.15669
Worsley,116,-33.3
Worroo Well,120.85,-19.68333
Worrolocking Tank,117.88333,-31.18333
Worrills Pass,131.1,-24.3
Worrenopping Well,117.61667,-31.96667
Worrangerup Swamp,117.33333,-34.36667
Wornanya Rock,123.85,-32.3
Worlds End Creek,139.0567,-33.83266
Worland Hill,118.88333,-32.36667
Workanda Creek,138.63333,-35.01667
Worindate Creek,129.73333,-16.86667
Wordarbie Well,117.76667,-26.35
Woralanna Wells,132.83333,-26.4
Wootoona,135.03333,-33
Woorunyan Woorie Waterhole,135.4,-14.43333
Woorrdt Pool,114.53333,-23.4
Wooroo Pool,115.93333,-21.66667
Wooroona Downs,138.03333,-20.5
Wooroona Creek,138.03333,-20.28333
Wooroona Bore,138.1,-20.33333
Wooroo Creek,115.96667,-21.63333
Woorong Creek,134.13333,-29.43333
Lake Woorong,134.13854,-29.40182
Wooroloo Brook,116.08333,-31.75
Wooroloo,116.31311,-31.8038
Woorogwing Pool,116.18333,-27.6
Wooroberdinner Well,120.05,-25.4
Woorkakanin Rock,118.3,-32.48333
Woorkabing Hill,117.43333,-32.65
Woora Woora Hills,121.48333,-22.68333
Woorana Waterhole,136.66667,-27.63333
Wooramel River,114.25,-25.88333
Wooramel,114.2844,-25.7404
Woorabbing Spring,117.33333,-31.56667
Woonwoorring Well,117.21667,-31.55
Woonthaling Well,114.65,-23.81667
Woonooma Tank,133.2,-32.06667
Woonjedie,116.86667,-28.2
Woonigan,139.7,-21.2
Woongoon Pool,116.68333,-26.56667
Woongarra,138.91667,-35.38333
Woongaring Hills,118.95,-30.46667
Woondlin Rock,118.03333,-32.56667
Woondingellup Pool,118.71667,-33.78333
Woonderang Well,113.95,-26.28333
Woondadying Hill,115.86667,-29.71667
Woonanup Swamp,117.31667,-34.73333
Woonana Pool,114.28333,-27.55
Woonana Gully,114.28333,-27.55
Woonalyaria Waterhole,134.65,-16.68333
Woomera,136.83258,-31.19981
Woomatanna Soak,132.45,-26.08333
Woolyeenyer,121.78333,-32.26667
Woolybutt Creek,125.68333,-16.81667
Woolunga Creek,130.38333,-11.26667
Woolundunga Creek,137.9,-32.55
Woolundra,117.8,-31.61667
Mount Wooltarlinna,129.86711,-27.0372
Wooltana Creek,139.55,-30.48333
Wooltana,139.41667,-30.41667
Woolshed Waterhole,136.25,-27.9
Woolshed Flat,137.96667,-32.45
Woolshed Creek,135.43333,-34.53333
Woolshed,137.48333,-32.43333
Woolpoo Hill,138.4,-27.91667
Lake Wooloomber,124,-22.08333
Wooloo Hill,139,-28.41667
Woolnong Spring,123.26667,-17.08333
Woolnomulla Bluff,136.23333,-30.15
Woolmit,139.95,-37.03333
Woollamullah Spring,114.16667,-27.7
Woolla Downs,133.9,-22.18333
Woolkabin Gully,117.61667,-33.38333
Wooliancubbing Spring,118.18333,-31.4
Woolgunjin Point,139.38333,-16.68333
Woolgorong Well,115.76667,-27.78333
Woolgorong,115.8272,-27.74556
Woolgerong Well,117.36667,-27.38333
Woolgerong,117.38333,-27.43333
Woolgerong,117.41667,-29.63333
Woolgatharra Pool,117.53333,-24.3
Woolgangie,120.53333,-31.16667
Woolgangi,139.5,-33.5
Woolgah,116.73333,-28.21667
Woolering Well,117.73333,-31.51667
Woolen River,135.21667,-12.28333
Wooleen,116.16,-27.08595
The Wooldridge,135.31667,-27.16667
Woolcutting Soak,119.08333,-32.18333
Woolbunna Pool,119.88333,-24.43333
Woolbunglin Well,117.88333,-31.8
Woolbertharra,117.2,-26.86667
Woolbernup Hill,119.7,-34.03333
Woolbenalling Hill,117.5,-31.6
Wool Bay,137.75,-35
Woolbannah Hill,130.33333,-13.6
Woolbale Hills,116.58333,-34.96667
Woolawandawoolana Well,116.05,-21.13333
Woola Tank,132.28333,-32.01667
Woolaring Well,117.33333,-31.95
Woolargarloo Spring,116.23333,-27.35
Woolanooka Hill,114.85,-28.88333
Woolamba,139.5,-33.26667
Woolabudda Out Camp,124.08333,-18.25
Wookia Rockhole,114.76667,-27.56667
Wooka Wooka,115.3,-30.73333
Wookata,132.28333,-31.93333
Woojalong Pool,116.45,-27.78333
Woojalong Hills,116.46667,-27.76667
Woogorong Well,115.91667,-26.61667
Woogorong Marsh,115.9,-26.63333
Wooggooddy Wurroong Well,114.33333,-27.31667
Woogenellup,117.83333,-34.51667
Wooganup,119.58333,-33.76667
Woogalong,116.5742,-27.80873
Woody Lake,121.91667,-33.81667
Woody Island,122.0129,-33.96095
Woody Island,136.08711,-13.81161
Wood Waterhole,136.23333,-27.91667
Mount Woodward,119.0131,-30.83262
Mount Woodward,131.09801,-26.0562
Woodville,138.55,-34.88333
Woods Well,139.53333,-36
Woodstock,139.05,-35.35
Woodstock,118.9561,-21.61894
Woods Promontory,131.66667,-14.81667
Woods Lake,139.5,-17.73333
Woods Inlet,130.25,-12.48333
Woodside,138.87901,-34.95433
Woods Hills,121.81667,-19.66667
Woods Flat,139.61667,-34.21667
Woods Dam,135.7,-30.7
Mount Woods,131.20804,-13.05927
Mount Woods,135.36224,-29.33147
Mount Woods,137.65,-23.15
Lake Woods,133.43333,-17.9
Woods,138.51667,-34.25
Woodroffe River,137.96667,-21.46667
Mount Woodroffe,131.74526,-26.3189
Wood River,127.05,-16.66667
Mount Woodridge,137.65,-23.21667
Woodrarrung Well,115.5,-27.18333
Woodrarrung Range,115.5,-27.16667
Wood Point,137.86667,-33.4
Wood Point,139.4,-35.21667
Woodoo Waterhole,134.53333,-16.53333
Woodmurra Creek,136.4,-27.61667
Woodman Point,115.76667,-32.15
Woodlupine Brook,115.95,-32.01667
Woodleys Well,118.53333,-28.18333
Woodley Soak,118.63333,-27.9
Woodley Bluff,119.56667,-27.55
Woodleigh,114.7531,-26.05068
Woodlands,138.78333,-35.35
Woodlands,138.66667,-35.48333
Woodlands,138.76667,-35.11667
Woodlands,118.1103,-24.8098
Wood Islands,123.3268,-16.38832
Wood Islands,124.05,-16.13333
Woodie Woodie Creek,121.13333,-21.66667
Woodier Spring,114.91667,-24.8
Woodhouse Rocks,122.7,-16.71667
Woodhouse Rocks,136.76667,-13.66667
Woodhouse River,126.31667,-15.71667
Woodhouse Point,123.58333,-16.15
Woodhouse Lagoon,124.78333,-26.16667
Mount Woodhouse,139.13333,-21.1
Mount Woodhouse,119.6288,-20.51948
Wood Hill,139.33333,-35.21667
Woodgreen,134.2,-22.43333
Woodforde Well,133.25,-22.46667
Woodforde River,133.45,-22.01667
Woodforde Hill,137.65,-31.46667
Woodforde Creek,137.68333,-31.31667
Wooderbundy Well,114.13333,-24.03333
Woodera Dam,114.08333,-24.93333
Woodenup Creek,120.11667,-33.51667
Wooden Duck Creek,134.75,-14.63333
Woodend Bore,138.56667,-21.33333
Woodella Rockhole,128.8,-31.58333
Wooded Island,113.8072,-28.75111
Woodebulling Hill,117.4,-32.6
Woodebulling Brook,117.53333,-32.98333
Woodduck Swamp,134.01667,-22.06667
Wood Duck,136.21667,-27.98333
Woodcock Well,116.13333,-25.28333
Woodcock Well,115.35,-24.3
Woodcocks Well,115.58333,-22.93333
Mount Woodcock,134.0333,-19.25
Woodchester,138.95,-35.21667
Woodburn Creek,115.8,-34.15
Woodburn,138.98333,-35.31667
Woodbrook,117.26667,-20.96667
Woodbine Creek,139.85,-18.13333
Woodbine Bank,123.5,-12.4
Woodanilling,117.43333,-33.56667
Isle Woodah,136.16667,-13.45
Woodada Hill,115.05,-29.73333
Point Wood,126.38333,-27.2
Woocalla Station,137.21667,-31.7
Woobera,139.76667,-21.48333
Wonyulgunna Hill,119.76667,-24.81667
Wonomo Waterhole,139.43333,-21.91667
Wonoka Hill,138.41667,-31.8
Wonoka Creek,138.4,-31.73333
Wonoka,138.4,-31.83333
Wonnobroba Waterhole,136.48333,-27.5
Wonnobroba Hill,136.45,-27.48333
Wonnerup Inlet,115.41667,-33.6
Wonnerup Estuary,115.45,-33.6
Wonnerup,115.43333,-33.63333
Wonna Creek,139.1,-33.26667
Wonmurri Waterhole,135.31667,-14.45
Wongway Creek,138.66667,-32.6
Wongulla,139.56667,-34.7
Wongong Brook,115.98333,-32.1
Wongong,116.01667,-32.18333
Wongolina,139.81667,-36.98333
Wongola Well,118.25,-20.46667
Wonglalalla Well,126.3,-32.23333
Wongita Well,115.86667,-22.96667
Wongi Hill,120.95,-30.15
Wongi Dam,121.98333,-31.03333
Wongawol,121.9411,-26.12033
Wongawobbin Pool,120.5,-20.7
Wongawall Creek,122.08333,-26.23333
Wongaroo Point,130.13333,-11.48333
Wongarlong,121.41667,-22.26667
Wongan Hills,116.71925,-30.89294
Wongan Hills,116.63333,-30.81667
Wongamine,116.61667,-31.48333
Wongalla Lagoon,132.41667,-14.91667
Wongalardow Well,115.08333,-23.11667
Wongalara Waterhole,134.41667,-14.15
Wongajuda Pool,116.08333,-23.05
Wonga Gorge,139.96667,-20.63333
Wonga Creek,138.1,-19.86667
Wonga Bay,136.60629,-13.0006
Cape Wondoma,134.06667,-32.73333
Lake Wonditti,138.61667,-22.75
Wondinong,118.41667,-27.86667
Wondillina,135.65,-27.81667
Wonberna Rock,123.76667,-32.61667
Wonberinganna Well,118.41667,-20.55
Wonardo,137.8,-19.96667
Wonarah Well,136.6,-20.15
Wonangarra Dam,114.9,-22.03333
Wompa Well,115.25,-23.76667
Wompangold Spring,122.71667,-16.96667
Wommeran,139.1,-39.55
Womma Hill,138.21667,-26.71667
Womerina Pool,118.41667,-21.05
Wombat Holes,127.43333,-31.65
Wombat Billabong,130.3,-15.56667
Wombarella Creek,124.73333,-17.36667
Wombaran Billabong,133.08333,-16.33333
Womal Park,137.83333,-26.68333
Womalgun Pool,126.5,-17.35
Wollubar Dam,121.61667,-31.06667
Wollonga Well,118.4,-23.36667
Mount Wollondain,130.46667,-15.28333
Wollogorang,137.9469,-17.2117
Wolla Wolla Station,116.48333,-28.36667
Wolla Wolla Hill,116.5,-28.38333
Wollaston Island,125.4596,-14.49442
Wollarrie Pool,114.93333,-25.68333
Wollara Well,132.51667,-24.78333
Wollanoo Hill,116.48333,-28.85
Wollanga Waterhole,134.2,-23
Woljumarung,116.95,-28.56667
Wolgrah Hill,123.4,-33.36667
Wolgooda Well,113.76667,-26.21667
Wolga Well,117.48333,-27.38333
Wolf Rock,125.36667,-14.25
Wolfram Hill,131.33333,-22.05
Wolfram Hill,132.23333,-13.93333
Wolfe Creek Meteorite Crater,127.79494,-19.17217
Wolfe Creek East,127.73333,-19.03333
Wolfe Creek,127.78333,-19.36667
Wolcott Well,114.05,-22.21667
Wolcongie Waterhole,134.66667,-18.7
Wolarry Waterhole,115.41667,-26.86667
Wolalyer Pool,114.6,-25.66667
Wokurna,138.05,-33.71667
Wokatherra Hill,114.65,-28.65
Wokatherra,114.66667,-28.63333
Wokarina Siding,114.61667,-28.66667
Wokalup,115.86667,-33.11667
Wojaweranna Pool,116.03333,-23.23333
Mount Wohler,117.6222,-21.30672
Wogooroo Soak,114.7,-23.31667
Wogoola,115.05,-23.05
Wogarno,117.65,-28.43333
Wogarno,117.66667,-28.36667
Wogarl,118.51667,-31.9
Wogara Well,116.98333,-26.85
Wogara Well,114.61667,-22.48333
Wogaloo Well,114.73333,-23.3
Wodgina Pool,118.46667,-21.41667
Wodgina,118.66667,-21.18333
Wockinginna Well,118.31667,-20.61667
Wockia Well,114.13333,-24.36667
Wobna Poorina Creek,134.86667,-28.56667
Woblegun Hill,121.08333,-22.2
Wobbingarra Waterhole,114.15,-23.48333
Wobana Well,134.35,-32.95
Wizard Peak,114.7889,-28.82154
Witton Bluff,138.46667,-35.15
Wittenoom Hills,122.13333,-33.46667
Mount Wittenoom,116.7109,-27.43484
Mount Wittenoom,128.8579,-18.57412
Witte Creek,139.23333,-33.41667
Wittecarra Spring,114.16667,-27.76667
Wittecarra Gully,114.13333,-27.73333
Withnell Point,113.03333,-25.61667
Withnell Creek,116.96667,-21.46667
Withers Pass,128.55,-24.9
Witera,134.6,-33.05
Witcomb Reefs,123.33333,-16.28333
Witcherrie Mound,135.5,-26.43333
Witchelina,138.05,-30.01667
Witchcliffe,115.1,-34.03333
Wistow Siding,138.86667,-35.1
Wistow,138.86667,-35.1
Wishbone,117.85,-33.26667
Wishart Spring,136.31667,-29.15
Wisby Well,117.16667,-31.91667
Wisanger,137.46667,-35.63333
Wirrulla Hill,134.6,-32.4
Wirrulla,134.51667,-32.4
Wirrula Rocks Tanks,134.61667,-32.4
Wirrinna Hill,138.35,-27.53333
Wirrindella Hill,134.18333,-32.76667
Wirrina Well,134.53333,-32.91667
Wirrigenda Reservoir,136.31667,-32.83333
Wirrigenda Hill,136.4,-32.81667
Lake Wirriegatinginie,139.91667,-27.28333
Lake Wirrida,134.59741,-29.59292
Wirriarrina Waterhole,136.1,-27.96667
Wirrianappi Creek,130.6,-11.7
Wirreanda Creek,138.38333,-32.13333
Wirrealpa Creek,139.2,-31.18333
Wirrealpa,138.95,-31.13333
Wirrda Ridge,137.15,-30.66667
Wirra Wirra Lake,118.4931,-27.78482
Wirra Wirra,138.96667,-34.68333
Wirrawintainie Hill,139.66667,-27.58333
Wirrawilla,138.23333,-29.9
Wirrappa Station,137,-31.43333
Wirrapowie Creek,139.15,-31.05
Wirrangula Hill,135.4,-28.41667
Wirrangula Creek,135.51667,-28.3
Wirraminna Hill,136.2,-31.16667
Wirraminna,136.15,-31.16667
Wirraminna,136.25,-31.2
Wirrabara,138.26923,-33.0338
Wirlpana Station,138.76667,-35.48333
Wirilia Tank,132.41667,-31.71667
Wireyard Billabong,124.15,-17.41667
Wire Gate Tank,133.41667,-32.06667
Wipipippee Hill,136.28333,-32.2
Winulta,137.86667,-34.28333
Wintinna Hill,133.83333,-27.61667
Wintinna Creek,134.23333,-27.78333
Wintinna Bore,133.83333,-27.55
Wintinna,134.11667,-27.73333
Wintiginna Hill,131.45,-27.1
Winters Creek,138.11667,-22.23333
Winter Hill,135.81667,-34.7
Winterbottom Rocks,125.13333,-27.91667
Winnowie,138.16667,-30.85
Winninowie,137.91667,-32.61667
Winnininnie,139.7,-32.53333
Winnininnie,139.7,-32.48333
Winning Well,115.4,-23.46667
Winning Pool,114.51667,-23.15
Winning,114.5403,-23.15704
Winning Hill,115.38333,-23.43333
Winnett Well,115.06667,-23.4
Winnemia Pool,114.93333,-25
Winnejup Brook,116.61667,-33.98333
Winneckes Depot,134.35,-23.3
Winnecke Rock,123.98333,-23.25
Winnecke Hills,129,-23.3
Winnecke Creek,131.56667,-18.58333
Mount Winnecke,137.15,-23.2
Mount Winnecke,130.33835,-18.79209
Winndero Pool,122.75,-26.06667
Winnalls Ridge,131.36667,-24.78333
Winnacutting Spring,117.98333,-31.73333
Winmar Creek,115.98333,-23.98333
Winkns Waterhole,136.55,-27.45
Winjardie Creek,115.51667,-30.38333
Winjangoo,117.96667,-27.86667
Winilippe Peak,134.95,-32.08333
Mount Winifred,126.28333,-18.05
Wingilpin Bluff,135.76667,-30.35
Lake Wingilpin,135.7543,-30.43159
Wingeni Well,133.85,-18.5
Wingate Mountains,130.7,-14.48333
Wingara Tank,133.76667,-32.13333
Winganna Well,128.08333,-31.83333
Wingamin,139.83333,-35.11667
Windywindina Creek,120.58333,-22
Windy Hill,139.78333,-32.51667
Windy Creek,138.38333,-30.58333
Windy Corner,138.6,-35.01667
Winduldarra Rockhole,126.01667,-26.51667
Windsor,138.33333,-34.41667
Windsor,118.56667,-28.01667
Windowarta Creek,139.06667,-32.06667
Windong Well,115.78333,-27.33333
Windmill Well,139.96667,-36.2
Windit Well,116.13333,-27.06667
Windinie Hill,116.63333,-29.03333
Windina,116.08333,-30.35
Windilbulya Soak,114.7,-23.33333
Windich Spring,120.83333,-25.55
Windich Creek,122.38333,-28.88333
Winderie,115.1178,-25.29983
Winderbing Well,117.85,-28.18333
Windemurra Well,118.55,-28.1
Windemurra,118.53333,-28.36667
Windella,139.21667,-35.28333
Windealbulya Pool,115,-24.01667
Windbag Bore,123.96667,-18.21667
Windarro Waterhole,126.76667,-25.93333
Mount Windarra,122.2345,-28.48423
Windaroo Well,117.58333,-27.41667
Windarling Peak,119.287,-30.07622
Windanya,121.25,-30.38333
Windaning Hill,116.9,-29.16667
Windamerta Hill,139.81667,-31.93333
Windalia Well,114.8,-23.28333
Windalia Pool,114.78333,-23.28333
Windakyungoo Hill,135.61667,-28.58333
Lake Windabout,137.09773,-31.31144
Windabijee Rockhole,127.91667,-32.01667
Winchester,115.91667,-29.78333
Winchelsea Island,136.5063,-13.755
Winceby Island,136.28308,-34.48917
Winburn Rocks,127.51667,-26.06667
Winari Spring,131.66667,-16.85
Winagooranin Waterhole,132.36667,-15.98333
Wimbia Hill,115.25,-22.55
Mount Wilyunpa,135.15846,-25.95333
Wilyha Well,124.28333,-17.51667
Wilyerpa Hill,139.05,-31.83333
Wiluna,120.22402,-26.5921
Wilton River,134.55,-14.75
Wilton Crossing,134.56667,-14.7
Wilthorpe Well,118.31667,-25.51667
Wilson Well,115.45,-23.58333
Wilson Tank,127.01667,-31.9
Wilsons Well,136.36667,-30.93333
Wilsons Well,115.28333,-24.16667
Wilsons Well,118.2,-20.45
Wilsons Patch Well,118.98333,-25.63333
Wilsons Creek,123.71667,-18.3
Wilsons Bore,135.48333,-30.35
Wilson River,128.26667,-16.8
Wilson Range,124.41667,-28.83333
Wilson Point,124.41667,-15.55
Wilson Island,121.9962,-34.11484
Eagle Island,113.5767,-26.09347
Wilson Inlet,117.375,-34.98333
Wilson Hill,138.53333,-35.56667
Wilson Head,117.33333,-35.05
Wilson Creek,120.96667,-28.51667
Wilson Creek,130.26667,-19.16667
Wilson Creek,128.03333,-17.41667
Wilson Creek,131.45,-16.33333
Wilson Creek,127.83333,-15.53333
Wilson Cliffs,127.15,-22.05
Wilson Bore,116.75,-24.23333
Wilson Bluff,129,-31.68333
Wilson Bay,139.45256,-17.11545
Mount Wilson,138.63986,-35.21109
Mount Wilson,127.73333,-20.25
Mount Wilson,125.56667,-17.91667
Lake Wilson,129.60577,-26.0177
Wilson,138.36667,-32
Mount Wilshere,128.1362,-15.20246
Wilroy,115.63333,-28.63333
Wilpena Creek,139.8,-31.11667
Wilpena,138.61667,-31.5
Wilomia Well,115.21667,-23.3
Wilmotts Bluff,115.1,-28.61667
Wilmington,138.09814,-32.64989
Willy Willy,127.16667,-18.85
Willyung Hill,117.84722,-34.945
Willyung Creek,117.90333,-34.93361
Willyum Creek,118.65,-34.66667
Willyaroo,138.91667,-35.26667
Willyabrup Brook,114.98333,-33.78333
Willunga Hill,138.56667,-35.28333
Willunga,138.55417,-35.27127
Willumbah Out Camp,124.21667,-17.95
Willugudinna Hill,133.26667,-27.23333
Willson River,137.93333,-35.86667
Lake Wills,128.85,-21.41667
Willow Well,119.9,-28
Willow Well,118.48333,-27.8
Willow Well,139.21667,-27.46667
Willow Plain,138.56667,-31.86667
Willowie,138.33333,-32.68333
Willouran Hill,137.96667,-29.85
Willouran Creek,138.1,-29.78333
Mount Willoughby,114.56667,-28.2
Mount Willoughby,134.45779,-27.67829
Cape Willoughby,138.11667,-35.85
Willocks Well,117.98333,-25.28333
Willochra Creek,137.75,-31.85
Willochra,138.13333,-32.23333
Willis Lookout,139.26667,-18.98333
Willippa,139,-31.75
Willinga Waterhole,139.58333,-21.06667
Willingarra Well,114.05,-24.28333
Willingale Station,139.43333,-35.53333
Willigenda Well,135.81667,-31.96667
Willigan Hill,139.35,-30.1
Willie Willie Creek,126.91667,-18.73333
Willie Point,123.01667,-16.61667
Willie Creek,122.2,-17.76667
Lake Williamup,121.6,-33.76667
Williams Well,134.25,-23.66667
Williams Well,119.2,-20.21667
Williamstown,138.89108,-34.6721
Williamstown,121.48333,-30.75
Williams Soak,114.51667,-27.2
Williams River,116.4,-32.98333
Williams Island,135.97531,-35.03083
Williams Creek,134.4,-16.15
Point Williams,126.55,-27.16667
Mount Williams,131.48021,-17.03732
Williams,116.87923,-33.02803
William Creek Station,136.35,-28.91667
William Creek,136.36667,-28.96667
Williambury Pool,115.15,-23.86667
Williambury,114.93333,-23.9
William Bay,117.1988,-35.03408
Mount William,116.0236,-32.93806
Lake William,136.40199,-29.01246
Mount Willgonarinya,123.38333,-32.96667
Willeroo,131.58067,-15.28686
Mount Willieray,133.76669,-18.4333
Willeragabbin Well,119.33333,-20.18333
Willawilaninna Lake,137.73333,-27.26667
Willaston,138.75,-34.58333
Willare Pool,123.63333,-17.71667
Willara Hill,121.95,-19
Willaraddie Creek,115.26667,-23.8
Willara,139.36667,-33.31667
Willamulka,137.86667,-33.93333
Willa Hill,139.33333,-27.81667
Wilkinson Range,124.78333,-27.98333
Wilkinson Lakes,132.68132,-29.61019
Wilkinson Creek,125.18333,-16.88333
Mount Wilkinson,120.18333,-26.8
Wilkie Spring,129.38333,-26.26667
Mount Wilkie,116.4183,-20.95062
Wilkatana Station,137.91667,-32.08333
Wilkamon Well,117.15,-31.43333
Wilgoyne Hill,118.45,-30.76667
Wilgoona Hill,119.05,-25.23333
Wilgie Hills,116.78333,-30.33333
Wilgie Hill,117.64833,-35.01556
Wilgia Mia Pool,114.35,-27.46667
Wilgerup Creek,118.96667,-33.91667
Wilgena Station,134.75,-30.76667
Wilgena Hill,134.7,-30.7
Wilgena,134.73333,-30.76667
Wilgemia,117.7,-26.93333
Wilgarup Lake,115.68333,-31.56667
Wilgarup,116.16667,-34.13333
Wilgarrup River,116.33333,-34.36667
Wilgarrup Pool,118.9,-34
Wilgareton Siding,121.15,-29.6
Wilga Bank Spring,120.76667,-33.76667
Wilga,116.23333,-33.68333
Wilga,122.53333,-29.11667
Wilfred Creek,138.18333,-18.96667
Wileys Well,119.41667,-20.23333
Wileyee Spring,117.28333,-28.4
Wileura Rockhole,128.28333,-31.7
Cape Wiles,135.68333,-34.95
Wilelyer Hill,115.28333,-27.36667
Wilds Island,113.61667,-21.45
Wild Night Hill,123.66667,-28.35
Wildmans Bluff,139.26667,-29.95
Wildman River,131.93333,-12.33333
Wildingi Claypan,134.16667,-29.56667
Wild Horse Swamp,116.71667,-33.66667
Wild Horse Plains,138.28333,-34.36667
Wild Horse Plain,139.43333,-35.08333
Wild Horse Gorge,137.96667,-17.6
Wild Horse Creek,116.76667,-33.25
Wild Horse Creek,139.33333,-17.58333
Wild Fig Spring,128.85,-15.28333
Wildeloo,135.73333,-34.2
Wild Dog Waterhole,137.43333,-27.81667
Wild Dog Spring,128.91667,-16.76667
Wild Dog Island,139.6,-36.13333
Wild Dog Hill Reservoir,136.53333,-33.16667
Wild Dog Hill,136.51667,-33.16667
Wild Dog Creek,136.56667,-30.96667
Wild Dog Creek,127.83333,-17.8
Wildcat Reefs,124.08333,-15.23333
Wildcat Bore,124.7,-17.91667
Wildara,120.85,-28.21667
Wilcowie,138.75,-32.13333
Wilcherry Hill,136.45,-32.75
Wilcherry,136.5,-32.83333
Wilbia Wells,132.56667,-25.1
Cape Wilberforce,136.58333,-11.9
Wilbatharra Dam,114.9,-21.93333
Wilbania Rockhole,130.1,-28.76667
Wilbah,120.66667,-28.95
Wilaroo Ridge,137.21667,-30.65
Wiladdi Soak,121.5,-30.11667
Wikebin Rock,117.66667,-33.11667
Wigunda Tank,130.48333,-31.46667
Wigunda Rockhole,130.48333,-31.43333
Wigram Island,136.5771,-11.775
Wightman Hole,138.13333,-20.28333
Wifellacoothra Well,118.33333,-20.56667
Widjip Well,121.31667,-19.51667
Widgiemooltha,121.56667,-31.5
Wide Gum Creek,131.25,-26
Widdallion Creek,138.85,-18.05
Wickhams Well,129.71667,-21.31667
Wickhams Hill,138.66667,-35.18333
Wickham River,131.1,-16.36667
Wickham Creek,120.56667,-22
Mount Wickham,129.49751,-17.04813
Wickepin,117.50297,-32.78159
Wichy Wichy Well,120.41667,-19.88333
Wicherina Station,115.01667,-28.71667
Wicherina Brook,115.03333,-28.71667
Wichena Well,115.9,-27.46667
Wichatopping Spring,117.88333,-31.73333
Wiamuna Waterhole,134.2,-13.63333
Wialki,118.11667,-30.48333
Wiacubbing Hills,117.93333,-30.86667
Wiabuna,133.53333,-31.96667
Whyte Yarcowie,138.86667,-33.23333
Whyngoon,139.28333,-32.63333
Whymlet,135.03333,-30.53333
Whylaggra Pool,122.61667,-22.43333
Whygabbin Well,116.65,-20.9
Whydown,139.26667,-32.7
Whyalla Reservoir,137.58333,-33.01667
Mount Whyalla,137.43961,-32.82701
Whyalla,137.56484,-33.03268
Whoogarup Range,119.83333,-33.95
Whitwarta,138.33333,-34.1
Whittles Creek,131.88333,-26.18333
Whittington Range,134.05,-18.93333
Whittata Hill,137.5,-31.66667
Whittata,137.41667,-31.75
Whittaker Island,116.6788,-20.542
Whitmore Island,113.6239,-24.86568
Whitington Soak,130.86667,-22.01667
Whitfords Beach,115.73333,-31.8
White Wells,116.96667,-29.6
White Well,134.95,-32.06667
White Well,135.95,-31.9
White Well,133.31667,-31.88333
White Well,132.83333,-31.76667
White Well,135.26667,-31.63333
White Well,135.5,-30.41667
White Well,116.41667,-27.25
White Well,121.4,-27.1
White Well,119.18333,-26.93333
White Well,118.38333,-26.6
White Well,116.03333,-24.48333
White Well,114.31667,-24.31667
White Well,116.36667,-24.2
White Well,115.76667,-22.91667
White Well,115.15,-22.16667
White Well,130.03333,-21.73333
White Well,131.01667,-31.43333
White Water Lake,117.6323,-32.5371
White Topped Rocks,116.21667,-35.03333
Whites Well,139.9,-35.2
Whites Well,139.21667,-32.71667
Whites Well,115.28333,-23.46667
White Stone Point,128.33333,-14.76667
Whitestone Billabong,131.68333,-14.46667
White Stone Billabong,131.43333,-12.51667
White Springs,118.8147,-21.78366
White Spring,117.41667,-21.11667
Whites Lagoon,138.31667,-21.71667
Whites Hill,139.01667,-34.96667
White Sand Hill,135.63333,-31.35
White Rock Waterhole,127.45,-17.68333
White Rocks,124.76667,-18.2
White Rock,136.66667,-12.75
White River,135.95,-34.5
White Quartz Well,119.51667,-20.66667
White Quartz Hill,119.31667,-21.53333
White Quartz Hill,117.28333,-20.88333
White Point Reef,114.9,-29.4
White Point,115.46667,-34.36667
White Point,114.95,-29.4
White Point,133.28333,-11.7
White Point,131.7,-22.31667
White Peaks,114.45,-23.11667
White Peak,114.61667,-28.63333
White Peak,116.7236,-20.69061
White Mountain Hill,128.96667,-17.25
White Mountain Creek,128.9,-17.26667
White Lake,121.8432,-33.73178
White Lake,117.4618,-33.00405
White Lake,115.8001,-31.22655
White Lake,139.35582,-27.78798
White Lake,121.73333,-24.71667
White Lagoon,137.52682,-35.85494
White Knob Bore,135.35,-29.88333
White Islet,113.75,-26.41667
White Islet,136.71706,-15.61111
White Island,124.35,-15.06667
White Island,125.825,-14.19444
White Hut Well,135.45,-33.41667
White Hut Creek,138.61667,-33.66667
Whitehurst Well,115.6,-27.33333
Whitehole Hill,137.23333,-32.46667
White Hole Creek,136.96667,-19.41667
White Hills Well,115.76667,-24.25
White Hills,139.73334,-19.6
White Hill,139.18333,-34.7
White Hill,115.6,-32.7
White Hill,136.38333,-28.6
White Hill,116.3,-24.96667
Whitehead,121.75,-30.21667
Whitegum Well,119.9,-20.93333
White Gorge,139.91667,-20.16667
Whitegin Rockhole,133.25,-30.85
White Flat,135.85,-34.51667
White Flag Lake,121.25,-30.65
Whitefield Hill,136.45,-31.06667
White Crossing,138.58333,-18.48333
White Cloud Cliffs,120.28333,-28.15
White Cliffs,122.95,-28.43333
White Cliff Point,129.73333,-14.03333
White Cliff Hill,138.25,-33.23333
White Cliff Hill,138.31667,-30.11667
White Cliff,136.88333,-29.85
White Cliff,135.63333,-26.71667
White Cliff,130.33333,-15.43333
Whiteblow Pass,139.71667,-19.4
White Beach,113.095,-25.18291
White Banks,138.96667,-30.03333
Lake White,129.05,-21.1
Whitby Falls,116.01667,-32.3
Mount Whitby,127.16667,-26.2
Whistler Creek Bore,138.6,-20.03333
Whistler Creek,138.51667,-20.3
Whistleduck Waterhole,134.96667,-20.53333
Whistleduck Creek,135.3,-20.25
Whisky Pool,115.28333,-22.53333
Whisky Creek,126.55,-16.26667
Whirlpool Reach,129.78333,-15.18333
Whirlpool Pass,123.5,-16.26667
Whirlpool Creek,134.95,-14.85
Whirl Point,123.11667,-16.43333
Whip Well,138.1,-27.38333
Whippo Creek,130.48333,-16.13333
Whipp Island,123.3693,-16.4936
Whinston Hills,115.96667,-33.93333
Mount Whinham,130.23654,-26.06469
Whim Creek,117.78333,-20.7
Whim Creek,117.83333,-20.83333
Whimbrel Point,123.03333,-16.43333
Whidbey Isles,135.15315,-34.73306
Point Whidbey,135.13333,-34.58333
Whicher Range,115.36667,-33.8
Whichelby Well,134.61667,-32.85
Whelarra,114.95,-28.33333
Mount Whelan,138.88333,-23.43333
Whela Creek,116.83333,-26.28333
Wheelo Creek,117.21667,-25.41667
Wheeler Rock,119.28333,-32.33333
Wheeler Rock,120.86667,-32.3
Wheeler Hill,125.2,-16.9
Wheelbarrow Well,121.38333,-33.76667
Wheelaman Creek,138.61667,-22.73333
Whately Range,124.9,-15.65
Wharton Hill,139.86667,-32.68333
Wharminda,136.23333,-33.95
Whamelk Bluff,133.8,-14.2
Whalleys Hill,139.06667,-35
Whalers Bay,136.17935,-35.00372
Whale Rock,121.65,-34.01667
Whale Rock,122.18333,-17.95
Whale Point,139.11667,-16.85
Whale Flat,129.61667,-14.65
Whalebone Island,114.36667,-22.18333
Whaleboat Cove,114.4,-28.36667
Whaleback Hill,113.55,-24.63333
Whaleback Hill,113.85,-22.86667
Weymul Pool,116.8,-21.01667
Point Weyland,134.63333,-33.23333
Wet Branch Saint Ronans Creek,138.95,-21.85
West Yule River,118.58333,-21.53333
West Yorkrakine,117.5,-31.4
West Woody Island,136.67352,-12.18315
Westwood Creek,128.5,-14.8
Westwood Bluff,125.5,-27.75
Westwing Bluff,125.91667,-27.61667
West Westonia,118.61667,-31.28333
West Well,115.78333,-27.4
West Well,115.73333,-24.71667
West Well,116.3,-24.2
West Wallabi Island,113.6883,-28.46667
City of West Torrens,138.58333,-34.95
West Toolaby,139.46667,-31.85
West Toodyay,116.41667,-31.53333
West Thornton Creek,138.88333,-19.4
West Terrace,121.41667,-28.58333
West Strelley River,119.18333,-20.4
West Side Creek,117.8,-22.9
West Roe Island,123.1885,-16.36332
West River,119.96667,-33.8
West Reef,115.4,-21.31667
West Point,135.95,-35.01667
West Point,130.51667,-12.56667
West Point,130.76667,-12.43333
West Point,134.16667,-11.95
Westonia,118.7,-31.3
West Mount Creek,137.75,-30.16667
Westmoreland,138.25,-17.33333
West Morawa Hill,115.83333,-29.2
West Montalivet Island,125.2213,-14.30247
West Minnie Well,115.81667,-24.01667
West Milga Well,116.01667,-26.81667
West Middle Intercourse Island,116.66667,-20.68333
West Lewis Island,116.6269,-20.59006
The West Lake,138.93333,-26.11667
West Island,138.59135,-35.60798
West Island,120.4847,-34.08194
West Island,133.2523,-32.51004
West Island,115.4489,-21.30972
West Island,122.1093,-16.85305
West Island,136.55,-15.6
West Island,123.01667,-12.21667
West Intercourse Island,116.6075,-20.70756
West Holothuria Reef,125.76667,-13.55
West Hill,135.46667,-27.53333
West Hill,127.26667,-25.18333
West Hill,117.15,-20.68333
Westfield,115.96667,-32.15
Western Spur,139.16667,-29.88333
Western Shoal,137.51667,-33.16667
Western Shaw River,119.38333,-21.85
Western Shaw,119.2,-21.81667
Western River,136.96667,-35.68333
Western River,136.96667,-35.7
Weston Patch,122.03333,-16.75
Western Gate Well,119.06667,-20.28333
Western Flat Creek,138.86667,-35.06667
Western Creek,133.28333,-22.1
Western Creek,137.93333,-20.28333
Western Creek,136.2,-16.26667
Western Creek,133,-15.23333
Western Cove,137.61667,-35.71667
Western Bluff,135.5,-27.43333
State of Western Australia,122,-25
West End Hill,137.06667,-32.58333
West Cooroothoo Well,115.5,-24.26667
West Cliff Point,116.26667,-34.86667
West Channel,121.66667,-33.95
West Cape Howe,117.61083,-35.13333
West Cape,136.83333,-35.25
West Branch Waterhouse River,133.03333,-14.46667
West Branch Horse Creek,139.56667,-26.16667
West Bluff,118.63333,-24.28333
West Bluff,132.23333,-22.75
West Bendering,118.16667,-32.35
West Bay,136.54295,-35.88874
West Bay,126.4824,-14.07802
West Bay,132.1667,-11.4
West Bastion,128.1207,-15.4519
West Baines River,129.96667,-15.6
West Arm,128.1,-15.33333
West Arm,130.78333,-12.55
West Alligator River,132.28333,-12.21667
Point Westall,134.06667,-32.91667
Mount Westall,134.08696,-32.89582
Mount West,128.8049,-26.22498
Wessel Islands,136.41667,-11.5
Cape Wessel,136.76667,-10.98333
Wertaloona,139.35,-30.63333
Werrigee Well,116.15,-23.35
Werragibbin Well,116.6,-26.43333
Weroona,139.16667,-34.56667
Wernadinga Out Station,139.96667,-18.18333
Wernadinga Bore,139.95,-18.15
Wernadinga,139.95,-18.11667
Werillup Hill,117.78083,-35.03889
Wepowie,138.48333,-32.83333
Weowanie Rock,119.75,-31.13333
Wenmillia Creek,115.46667,-28.48333
Wembley,115.8,-31.93333
Wellundunan Well,118.83333,-27.16667
Wellsteads,119.18333,-34.1
Wellstead Rock,120.98333,-32.6
Wellstead Estuary,119.36667,-34.38333
Wells Spring,132.43333,-13.75
Wells Range,121.9,-22.9
Mount Wells,116.3357,-32.69878
Mount Wells,131.71091,-13.5042
Mount Wells,138.84876,-28.89099
Mount Wells,127.13333,-17.41667
Lake Wells,123.16667,-26.71667
Wellocorring Pool,114.98333,-23.45
Wellington Reservoir,116.01667,-33.4
Wellington Range,121.83333,-26.28333
Wellington Range,133.15,-11.8
Wellington Mills,115.9,-33.46667
Wellington Lodge,139.35,-35.4
Wellington East,139.4,-35.33333
Cape Wellington,124.83333,-15.16667
Wellington,139.38333,-35.35
Welletellyinna Hill,133.45,-27.41667
Wellesley River,115.73333,-33.28333
Wellesley Islands,139.5,-16.7
Wellesley Flats,115.81667,-33.11667
Mount Wellesley,121.6833,-26.257
Wellard,115.83333,-32.26667
Mount Wellard,117.3852,-21.07533
Welland,138.53333,-34.9
Weld Water,128,-24.76667
The Weld Spring,121.58333,-25.01667
Weld River,116.58333,-34.8
Weld Range,117.58333,-27
Weld Pass,128.33333,-24.93333
Weldon Soak,132.83333,-22.21667
Mount Weldon,132.98333,-22.26667
Weld Island,115.5427,-21.38646
Port Weld,115.53333,-21.4
Mount Weld,122.5236,-28.73729
Weld,114.63333,-28.2
Welcome Well,121.18333,-25.05
Welcome Water,124.2,-19.3
Welcome Swamp,120.86667,-33
Welcome Soak,120.83333,-33.03333
Welcome Hill,118.68333,-32.03333
Welcome Hill,118.83333,-32.03333
Welcome Creek,136.18333,-29.7
Welcome Bore,136.43333,-29.48333
The Welcome,137.65,-29.36667
Mount Welcome,116.2731,-27.06345
Mount Welcome,117.11667,-20.76667
Lake Welcome,139.86633,-27.79683
Welbungin Hill,118.05,-30.83333
Welbungin,117.98333,-30.81667
Welbourn Hill,134.1,-27.26667
Welbourn Hill,134.1,-27.35
Welba Well,117.23333,-29.21667
Weirs Farm,115.942,-29.4782
Weira Hill,138.73333,-32.16667
Weiragoo Range,116.76667,-26.46667
Weira Creek,138.7,-32.23333
Mount Weir,134.26939,-13.6925
Mount Weir,133.79544,-27.15579
Weinup Hill,116.46667,-34.28333
Weinna Hill,131.11667,-26.91667
Wegegene Pool,117.36667,-26.46667
Wee Wah Dam,114.33333,-27.41667
Weewaddi Well,115.86667,-22.88333
Weetulta,137.63333,-34.25
Weetowie Creek,139.51667,-30.85
Weetara Tank,134.85,-32.38333
Weeroopie Hill,139.9,-31.98333
Weerinoogudda Soak,114.38333,-27.3
Weerinoogudda Gully,114.35,-27.43333
Weerinoogudda Dams,114.38333,-27.31667
Weerimbrook Hill,139.61667,-35.51667
Weeral Well,122.31667,-19.28333
Weenyung Claypan,115.56667,-26.25
Weenoo Soak,121.58333,-20.58333
Lake Weemarrie,139.11667,-25.51667
Weelumerrina,117.66667,-22
Weeloo Hill,117.05,-27.16667
Weeloogorong Spring,117.18333,-28.43333
Weeljarra Rockholes,126.36667,-26.36667
Weeli Wolli Spring,119.21667,-22.91667
Weeli Wolli Creek,119.2,-22.5
Wee Lingaree Creek,137.13333,-19.71667
Lake Weelhamby,116.45,-29.23333
Weelgryne Spring,127.1,-26.16667
Weelarrana,120.0103,-23.97728
Weeks Shoal,115.08333,-21.51667
Weekly Hill,126.53333,-26.48333
Mount Weekes,128.29849,-19.13413
Weekeroo Hill,139.86667,-32.26667
Weegarinna Pool,115.8,-22.86667
Weedoodoo Rockhole,127.21667,-31.91667
Weedong Well,122.7,-16.78333
Weedong Pool,115.7,-26.5
Weednanna Hill,136.45,-32.8
Weedina Creek,135.53333,-28.31667
Weediah Bay,139.48644,-16.57989
Weedarra Well,116,-23.51667
Weedara Well,116.7,-25.05
Weedah Yalan,117.73333,-27.91667
Weedagabby Spring,117.06667,-29.36667
Weebucca Hill,135.96667,-27.18333
Weebo,121.05,-28.03333
Mount Weeahlakiminne,135.43767,-26.18091
Wedina Hill,134.38333,-32.96667
Wedin,117.68333,-32.96667
Wedge Rock,113.18333,-24.8
Wedge Rock,136.3,-13.58333
Wedge Point,113.18333,-24.78333
Wedge Island,136.46614,-35.15518
Wedge Island,122.86667,-34.1
Wedge Island,115.1884,-30.8285
Wedge Hills,128.21667,-15.41667
Wedge Hill,132.25,-26.16667
Mount Wedge,135.14191,-33.47571
Wedge,135.15,-33.5
Wedding Brook,116.75,-34.88333
Webster Bluff,128.06667,-15.1
Web Reef,114.53333,-21.76667
Webling Point,137.9,-33.6
Webbs Flat Well,134.03333,-26.26667
Webb Point,132.13333,-11.63333
Mount Webb,128.7,-23.96667
Weaver Lagoon,137.66447,-34.94528
Lake Weatherstone,138.11597,-30.26445
Wearyan River,136.85,-15.95
Wearings Well,131.66667,-31.33333
Weaner Waterhole,136.48333,-27.6
Weaner Waterhole,137.38333,-19.63333
Weaner Crossing,131.15,-16.21667
Weamerjimgup Creek,123.41667,-33.93333
Weam,117.13333,-32.38333
Wealjugoo Hill,113.71667,-22.55
Wealbarguntha,117.8,-26.41667
Wealacutta Pool,115.06667,-30.48333
Weaber Range,128.91667,-15.38333
Wayville,138.58333,-34.95
Way Rock,123.4,-16.4
Waylbar Spring,117.28333,-28.25
Waychinicup River,118.32889,-34.89806
Wayabeen,119.11667,-30.21667
Mount Way,139.06874,-29.30036
Lake Way,120.3,-26.8
Billabong Wa Wu-i,133.06667,-11.58333
Waverley Hill,134.91667,-32.01667
Waverley Creek,138.86667,-21.48333
Waverley Bore,138.91667,-21.51667
Wave Hill,130.8,-17.43333
Wave Hill,130.95,-17.48333
Waurea Well,135.4,-31.83333
Wauraltee,137.55,-34.58333
Waulkinna Hill,135.55,-32.71667
Waulgie Well,134.43333,-32.76667
Waulalumbo,135.51667,-31.48333
Waukatanna Waterhole,139.26667,-28.05
Lake Waukarlycarly,121.83333,-21.41667
Waukaringa Hill,139.21667,-32.41667
Waukaringa Creek,139.16667,-32.43333
Waukaringa,139.43333,-32.3
Mount Waugh,127.105,-26.11694
Waudelillup Swamp,117.11667,-34.31667
Waucka Hill,138.5,-28.38333
Wauchope Creek,134.13333,-20.65
Wauchope,134.25,-20.6
Watulunga,138.85,-35.4
Watts Pool,114.66667,-24.96667
Mount Watts,138.48333,-33.5
Watt Range,134,-21.46667
Wattoning Well,118.2,-30.76667
Wattle Well,132.83333,-20.2
Wattle Well,119.01667,-20.13333
Wattle Waterhole,136.73333,-27.86667
Wattle Rocks,119.46667,-32.26667
Wattle Hill,137.88333,-26.36667
Wattle Flat,138.38333,-35.45
Wattle Creek,139.33333,-17.66667
Wattiwarriganna Creek,136.16667,-28.95
Wattiwarrigan,135.78333,-29.16667
Watthanganya Bluff,117.71667,-21.66667
Wattew Well,116.03333,-27.46667
Wattening Brook,116.51667,-31.31667
Wattening,116.51667,-31.33333
Watt Creek,126.23333,-26.91667
Watta Watta Well,117.48333,-28.56667
Wattagee Pool,117.85,-27.23333
Wattagee Hill,117.85,-27.23333
Wattaberri,138.68333,-35.51667
Point Watt,126.28333,-26.88333
Watson Siding,131.51667,-30.48333
Watsons Hole Bore,139.05,-18.26667
Watsons Creek,138.56667,-29.85
Watsons Creek,135.98333,-27.35
Watsons Camp Waterhole,139.03333,-18.25
Point Watson,138.48333,-18.41667
Mount Watson,130.66591,-17.93409
Watraba,133.21667,-31.96667
Watjama Purtna,131.16667,-22.16667
Watheroo,116.06667,-30.28333
Wathergabbing,117.3,-29.41667
Wathala Swamp,114.9,-28.28333
Watery River,126.28333,-18.25
Waterwitch Rocks,121.7,-34.31667
Watervale,138.63333,-33.95
Mount Waters,134.33333,-14.03333
Watermelon Spring,114.86667,-24.4
Watermelon Creek,114.61667,-24.4
Waterlow Island,123.08333,-16.43333
Waterloo Wells,130.31667,-21.55
Waterloo Range,114.86667,-28.43333
Waterloo Creek,129.41667,-16.55
Waterloo Corner,138.58333,-34.71667
Waterloo Bay,134.87459,-33.64291
Mount Waterloo,125.06667,-15.28333
Waterloo,115.75,-33.31667
Waterloo,138.86667,-33.98333
Waterloo,129.32861,-16.63422
Water Island,125.4935,-14.34942
Water Island,125.76667,-14.21667
Waterhouse River,133.15,-14.93333
Waterhouse Range,133.41667,-24.01667
Waterhouse Point,136.2,-35.06667
Waterhouse Bay,136.19649,-35.04538
Waterhole Point,138.91667,-35.56667
Waterfall Well,116.71667,-27.88333
Waterfall Well,115.68333,-27.35
Waterfall Creek,138.08333,-32.91667
Waterfall Creek,136.63333,-18.66667
Watercarrin Well,117.16667,-31.36667
Waterbidden Soak,118.86667,-31.93333
Waterbag Creek,131.25,-16.16667
Waterbag Creek,131.36667,-14.8
Watch Point Hill,120.86667,-23.26667
Lake Watchiewatchina,139.75,-27.38333
The Watchers,134.71667,-33.6
Wasleys,138.68562,-34.46992
Washpool Waterhole,139.9,-18.25
Wash Pool Gully,117.65,-33.3
Wash Pool,116.81667,-21
Warwick Downs Out Station,138.46667,-21.5
Warwick Channel,136.26667,-13.85
Warup,117.18333,-33.36667
Warunlak Creek,132.53333,-14.76667
Warungup Brook,117.03333,-34.1
Warunda Creek,135.63333,-34.43333
Warunda,135.68333,-34.46667
Warton Range,126.45,-17.41667
Mount Warton,126.3932,-17.41192
Warta Pool,116.63333,-21.48333
Wartaka Out Station,136.93333,-32.5
Wartaka,137.15,-32.51667
Wartagunyah Well,119.21667,-20.35
Warrungup Hill,118.1,-34.35
Warrungmool Pool,115.26667,-25.78333
Warrungadinna Creek,134.21667,-26.93333
Warrow,135.46667,-34.33333
Warrow,135.46667,-34.4
Warrorang Well,116.41667,-27.56667
Warroora Well,113.8,-23.48333
Warroora,113.7933,-23.48177
Warroona Pool,117.85,-21.23333
Warroo Hill,121.26667,-21.16667
Warroobpah Well,121.65,-18.95
Warroan,117.53333,-28.05
Warrnambool Well,119.7,-20.7
Warri Well,116.91667,-25.15
Warri Well,125.38333,-24.9
Warri Warri Creek,121.15,-21.61667
Warriup Hill,118.48333,-34.7
Warriup,117.38333,-34.31667
Warrioota Creek,138,-30.9
Warrioota,138.13333,-30.86667
Warrinup Swamp,117.25,-34.35
Mount Warrington,134.6167,-14.7
Warringoona Pool,114.48333,-23.4
Warringee Point,139.26667,-35.7
Warringee,139.3,-35.68333
Warriners Creek,137.11667,-29.41667
Warriner,135.95,-29.15
Warrinatta Well,134.85,-33.23333
Warrina Station,135.83333,-28.2
Warrina Spring,118.05,-21.8
Warrimbah,125.08333,-18.43333
Warriki Hill,129.5,-17.08333
Warrigal Well,134.8,-31.98333
Warrie Well,115.85,-26
Warriedar,117.1,-29.1
Warriedar,117.15,-29.13333
Warriebucca Waterhole,137.46667,-27.81667
Warriearran Out Camp,119.3,-20.01667
Warrie,119.7055,-22.26032
Warribia Pool,115.98333,-27.95
Warribarloo Spring,116.25,-28.03333
Warribanno Chimney,114.61667,-27.88333
Lake Warrewarrana,136.83563,-27.57787
Warren River,115.83333,-34.58333
Warren Reservoir,138.91667,-34.71667
Warren National Park,115.9682,-34.49409
Warrening Brook,116.56667,-33.03333
Mount Warren Hastings,139.33333,-30.33333
Warrengidging Brook,117.41667,-31.76667
Warren Double Cunyan,118.66667,-31.1
Port Warrender,125.91667,-14.5
Warren Creek,131.11667,-23.23333
Mount Warren,134.8167,-14.8167
Mount Warren,123.2911,-27.74671
Lake Warren,136.8936,-29.01403
Warree Well,120.31667,-19.95
Warrdagga,117.5,-29.4
Warrawoona Peak,119.8858,-21.32615
Warrawoocara Hills,138.85,-28.71667
Warra Well,135.05,-32.05
Warraweena,138.63333,-30.75
Lake Warrawarrinna,138.82561,-28.5568
Warrawagine,120.6947,-20.85058
Warrawadda Bore,124.53333,-17.83333
Warratta Vale,136.18333,-34.26667
Warratarra Soak,118.08333,-28.28333
Warrataddy Hill,133.98333,-26.41667
Warrarie Dam,114.28333,-23.86667
Warranjababba Spring,114.65,-27.55
Warranguthia Well,116.13333,-27.33333
Warrangul Well,120.13333,-19.91667
Lake Warrangarrana,135.64448,-28.40583
Lake Warrandirinna,137.98792,-27.47857
Warramurrup Swamp,119.21667,-34.43333
Warramurrup Hill,119.15,-34.41667
Warrambu Station,118.16667,-28.05
Warramboo Lake,115.7053,-28.45097
Warramboo Creek,115.65,-21.55
Warramboo,135.6,-33.23333
Warramboo,117.83333,-28.03333
Warramboo,115.8144,-21.6448
Warrambar Spring,117.85,-28
Warramban Waterhole,133.76667,-16.61667
Warralong Station,119.4,-20.76667
Warralong Creek,119.63333,-20.9
Warralong,119.5897,-20.64976
Warralling Well,117.43333,-31.95
Warraling Hill,118.18333,-31.23333
Warralie Well,114.86667,-23.3
Warralee Well,115.05,-22.1
Warralee Well,115.8,-21.45
Warralakin,118.6,-31.03333
Lake Warrakalanna,139.32022,-28.19379
Warrakilla Hill,138.76667,-35.06667
Warragef Hill,116.5,-28.98333
Warrachie,135.71667,-33.65
Warrabuda,126.05,-21.36667
Warrabillinna Soak,131.96667,-26.41667
Mount Warrabillinna,132.16,-26.33967
Warraarbar Spring,115.4,-23.93333
Warpunna Hill,138.28333,-29.05
Warpoo Siding,138.86667,-34.6
Warperup Creek,118.21667,-34.06667
Waroo Well,114.8,-24.66667
Waroo Pool,122.76667,-25.73333
Waroongunyah Rockhole,121.43333,-22.48333
Waroonee,139.4,-32.51667
Waroona Peak,135.14557,-32.24825
Waroona,115.92201,-32.84323
Warooka,137.40115,-34.99031
Warn Rock,126.1,-13.15
Warn Island,125.3149,-14.33414
Warnertown,138.11667,-33.23333
Warners Well,135.95,-32.5
Warne River,118.13333,-29.18333
Warnbro Sound,115.71667,-32.33333
Warnambar,118.2,-29
Warna Dam,138.71667,-32.4
Warmakid Yaboo Hill,136.83333,-28.16667
Warloch Ponds,133.08333,-15.1
Warla,139.06667,-35.13333
Waringal Well,120.15,-19.93333
Warien Brook,116.33333,-31.93333
Wariauo,127.18333,-20.15
Wares Peak,135.8,-29.56667
Ware Range,130.08333,-18.98333
Warening Spring,117.63333,-31.9
Wardutharra Well,117.58333,-28.83333
Wardulka Soak,132.05,-26.11667
Wards Well,120.2,-26.7
Wards Belt,138.66667,-34.58333
Ward Rock,136.43333,-35.11667
Ward Reef,115.06667,-21.6
Ward Point,137.96667,-33
Wardoo Creek,139.53333,-16.41667
Ward Islands,134.28627,-33.74398
Wardiacco,118.21667,-28.98333
Wardiacca,117.31667,-28.48333
Wardering Lake,117.2479,-33.52878
Wardering,117.41667,-32.86667
Wardercarrin Soak,118.56667,-32.88333
Wardercarrin,118.56667,-32.88333
Warden Pool,118.3,-21.28333
Warden Hill,139.21667,-30.43333
Lake Warden,121.86667,-33.81667
Warda Warra,117.11667,-27.6
Wardarlea Bay,136.49753,-13.17073
Wardarbull,117.41667,-27.33333
Wardang Island,137.35873,-34.49853
Wardagalyou Waterhole,117.08333,-27.76667
Warcurracurra Billabong,130.71667,-18.01667
Warby Lagoon,136.75,-16.15
Warburto Point,137.53333,-34
Warburton Range,126.63333,-26.15
Warburton Mission,126.58333,-26.13333
Warburton Lake,118.2146,-34.71711
Warburton Creek,126.6,-26.08333
Warburton Creek,132.53333,-22.15
Warburton Channel,134.1,-32.53333
The Warburton,137.46667,-28.06667
Mount Warburton,130.8833,-16.5333
Warburton,126.57681,-26.1346
Warburto,137.61667,-34
Warbrook,116,-31.71667
Warbla Cave,129.18333,-31.51667
Warbadoo,116.66667,-28.13333
Warawarrup,115.9,-33.05
Waraninna Creek,139.26667,-29.08333
Waranda Well,133.96667,-32.2
Warana Hill,139.81667,-26.91667
Warambie Pool,117.4,-20.93333
Warambie,117.3722,-20.94783
Waralla Creek,115.58333,-23.55
Warakimbo,138.03333,-31.96667
Warahbah Point,139.23333,-16.73333
Warada River,123.61667,-16.23333
Wappah Island,136.06667,-13.46667
Wantina Hill,139.81667,-26.53333
Wantiby Wells,132.6,-31.93333
Wanteen Rockhole,128.4,-31.78333
Wantapella Swamp,133.48333,-27.03333
Wansbrough,117.66667,-34.13333
Wanoora Hill,137.06667,-27.83333
Wanniebarcoo Hill,135.93333,-27.26667
Wannery Creek,115.71667,-22.78333
Wanneroo,115.8,-31.75
Wannarra Rock,116.78333,-29.51667
Wanarra,116.8023,-29.51374
Wannangunna Spring,118.86667,-24.28333
Wannamana,135.51667,-33.1
Lake Wannamal,115.88333,-31.15
Wannamal,116.05,-31.16667
Wanna Lakes,128.45,-28.5
Wannabooline Creek,122.05,-26.08333
Wanmurrin Well,119.25,-20.35
Wanjalootharra Waterhole,114.71667,-22.41667
Waniunga Beach,130.6,-11.81667
Wanilla Well,132.75,-31.86667
Wanilla,135.68333,-34.5
Wangup Well,119.06667,-34.01667
Wangiti Beach,130.1971,-11.6018
Wangine Soak,120.85,-30.15
Wangianna Station,137.7,-29.66667
Wangianna Creek,137.76667,-29.53333
Wangewanga Cove,132.15,-11.38333
Mount Wangee,117.21667,-20.73333
Wangata,116.86667,-28.05
Wangary Lake,135.5,-34.53333
Wangary,135.48333,-34.55
Wangaran Swamp,132.9,-11.43333
Wangan Well,120.48333,-19.8
Wanganut Well,122.36667,-17.45
Wanganui Rock,130.05,-11.68333
Wanganoo Creek,121.4,-27.08333
Wanganoo,121.33333,-27.15
Wangalee Well,120.08333,-20
Wangabbie Tank,135.26667,-33.01667
Wanery Brook,115.98333,-30.7
Wanerie,115.55,-31.18333
Wanenino Hill,136.03333,-27.1
Wandy Wandy Creek,121.05,-21.33333
Wandunya Soak,126.41667,-26.81667
Wandry Springs,117.95,-25.71667
Wandrie Well,116.58333,-27.86667
Wandolbie Waterhole,139.76667,-21.43333
Wandle-End-De-End Soak,115.3,-23.65
Wandinny Creek,114.5,-24.31667
Wandina,115.6306,-27.98569
Wandie Creek,131.93333,-14.13333
Wande Wande Claypan,114.01667,-25.05
Wandery Pool,117.95,-25.71667
Wandery Hill,136.9,-28.33333
Wandery Creek,117.95,-25.73333
Wanderry Well,119.41667,-20.46667
Wanderoo Hill,118,-28.11667
Wandering Brook,116.66667,-32.75
Wandering,116.66667,-32.68333
Wandearah East,138.06667,-33.38333
Wanda Well,125.38333,-22.13333
Wanda Wanda Creek,121.6,-31.36667
Wandarry Creek,117.16667,-23.43333
Wandarrie Well,116.78333,-25.86667
Wandarria Well,116.85,-27.76667
Wandarri,117.85,-27.83333
Wandarri,117.88333,-27.81667
Wandanno Hill,116.71667,-29.98333
Wandaning Well,118.33333,-30.6
Wandaning,118.33333,-30.6
Wandanella Well,114.58333,-27.91667
Wandana Hill,115.16667,-28.33333
Wandana,133.81667,-32.06667
Wandallan Creek,139.05,-33.66667
Wandagee,114.45,-23.85
Wandagee,114.5547,-23.76427
Wandabuddie Limestone Spring,131.28333,-21.4
Wanberiki Hill,131.08333,-22.18333
Wanaway Well,121.46667,-31.58333
Wananing Hill,117.16667,-32.46667
Wanabia Wells,113.8,-24.41667
Wamenusking,117.58333,-32.11667
Wamballup Swamp,117.45,-34.53333
Walyormouring Lake,116.8734,-31.14904
Walyoo Hill,115.68333,-30.9
Walyer Walyer,115.61667,-30.83333
Walyering,115.5,-30.66667
Walyahmoning,118.75,-30.63333
Lake Walyungup,115.7793,-32.34045
Walunga Swamp,132.76667,-11.56667
Waltumba Well,135.83333,-32.15
Waltowa Swamps,139.36667,-35.61667
Waltowa,139.43333,-35.61667
Waltons Well,135.73333,-30.63333
Waltons Palace Creek,138.75,-33.55
Point Walton,117.31667,-35.05
Mount Walton,120.11667,-30.58333
Waltina Hill,139.33333,-27.56667
Waltha Woora Creek,121.13333,-21.55
Walters Well,114.98333,-23.31667
Walters Well,116.66667,-20.83333
Walters Well,118.11667,-20.66667
Walters Spring,132.38333,-13.66667
Walter James Range,128.78333,-24.66667
Mount Walter,120.1909,-30.92316
Mount Walter,134.67522,-26.59056
Mount Walter,131.16667,-11.68333
Waltabie Well,132.03333,-31.58333
Waltabie Tanks,131.9,-31.48333
Walsh Rock,122.36667,-29.83333
Walsh Creek,125.73333,-17.18333
Walrus Rock,137.51667,-34
Walpuppy Dam,135.66667,-32.2
Walpole River,116.73333,-34.96667
Walpole-Nornalup National Park,116.6393,-35.01547
Walpole Inlet,116.73333,-34.98333
Walpole,116.73133,-34.97623
Walperracanna Well,137.55,-26.2
Lake Walpaypeninna,139.15,-28.3
Waloo Waloo Pool,117.08333,-21.21667
Walogerina Spring,122.46667,-32.01667
Walmudga Plain,134.76667,-14.68333
Walmudga Creek,134.83333,-14.76667
Walmesly Bay,125.6999,-14.41053
Wallyinya Pool,117.45,-21.68333
Walloway,138.58333,-32.63333
Walloona Pool,117.26667,-21.73333
Walloo,117.41667,-27.25
Walliston,116.06667,-32
Wall Island,123.3757,-16.36943
Wallinna Creek,131.9,-26.51667
Walling Rock,120.36667,-29.45
Wall Flat,139.31667,-34.96667
Wallerberdinna,138.11667,-31.71667
Walleinginna Rockhole,132.91667,-27.38333
Walledar Pool,116.03333,-26.58333
Wall Creek,134.83333,-25.9
Wallaway Spring,131.95,-16.66667
Wallaway Creek,131.95,-16.7
Wallatinna Waterhole,133.41667,-27.48333
Wallathea Pool,116.31667,-28.96667
Wallatalleena Peak,132.28587,-27.03056
Mount Wallaston,131.41667,-17.01667
Wallaroo Rock,120.48333,-30.8
Wallaroo Mines,137.68333,-33.96667
Wallaroo Bay,137.61412,-33.91006
Wallaroo,137.63365,-33.93881
Wallaroc Wells,115.41667,-21.6
Wallaringa Peak,118.7963,-20.75365
Wallareenya,118.8169,-20.75004
Wallan Well,119.25,-20.51667
Wallang Well,116.23333,-27.51667
Wallangie Soak,120.08333,-30.7
Wallangering,120.21667,-30.85
Wallana Swamp,114.01667,-25
Wallamunga Waterhole,129.43333,-18.23333
Wallamunda Waterhole,133,-17
Lake Wallambin,117.525,-31.00306
Wallal Well,120.68333,-19.76667
Wallal Downs,120.6408,-19.77974
Wallala Well,120.2,-19.93333
Wallala Rock Tanks,134.66667,-32.33333
Wallala Hill,134.66667,-32.33333
Wallalah Bore,116.35,-25.8
Wallajar Well,118.08333,-27.98333
Walla Hills,135.63333,-25.95
Wallace Hills,128.53333,-24.31667
Mount Wallace,138.78442,-30.62339
Wallaby Well,132.95,-22.58333
Wallaby Nobs,120.15,-28.16667
Wallabyng Well,135.36667,-30.76667
Wallabyng Range,135.31667,-30.75
Wallaby Knob,134,-22.9167
Wallaby Hill,139.71667,-32.85
Wallaby Hill,139.3,-29.88333
Wallaby Creek,138.2,-32.38333
Wallaby Creek,132.9,-22.73333
Mount Wallaby,134.85213,-31.98622
Wallabi Group,113.7078,-28.46639
Wallabbie Rockhole,130.11667,-31.51667
Mount Wall,116.8,-22.76667
Walk Walkin Soak,117.33333,-30.81667
Walkers Creek,138.83333,-34.55
Walkers Creek,130.65,-12.96667
Walker Rock,121.83333,-16.86667
Walker River,135.86667,-13.53333
Walker Point,136.88333,-15.61667
Walker Island,125.3157,-14.29886
Walker Flat,139.56667,-34.76667
Walker Creek,132.36667,-24.36667
Mount Walker,118.76667,-32.08333
Walkeley Hills,131.5,-20.91667
Walkaway,114.8,-28.95
Walkatharra Pool,117.51667,-24.31667
Walkabubba Creek,115.53333,-25.46667
Walinu Well,119.83333,-20.7
Walgun Well,116.91667,-27.43333
Walgun Well,119.83333,-20.85
Walgun,120.7177,-23.20115
Walgra,138.38333,-21.76667
Walgoolan,118.56667,-31.38333
Walgidee Out Camp,124.9,-18.31667
Walgidee Hills,124.86667,-18.3
Walga Well,115.06667,-23.75
Walgawardoo Well,114.56667,-23.76667
Walgatharra Well,116.58333,-27.26667
Walgarry Rockhole,119.03333,-28.93333
Walganna,117.46667,-27.4
Walgagunya,119.2,-27.08333
Walga Gunya,119.2,-27.06667
Walgabidda Well,116.15,-27.11667
Walford Point,132.06667,-11.18333
Walford Creek,138.6,-17.4
Walellemining Brook,117.55,-32.65
Walebing,116.21667,-30.68333
Waldrons Hill,132.3,-20.71667
Waldra Hill,138.56667,-27.58333
Walder Walder Pool,115.66667,-26.55
Walderks Station Well,118.45,-28.23333
Waldegrave Island,134.81667,-33.6
Waldburg Range,117.46667,-24.73333
Waldarie Parlkalidga Rockhole,130.21667,-29.86667
Waldana Well,130.46667,-28.81667
Walcott Inlet,124.58333,-16.41667
Port Walcott,117.18333,-20.58333
Walcaroo Well,114.01667,-25.08333
Walbor Inlet,139.46667,-16.56667
Walbelup Swamp,117.13333,-34.3
Walbarune Peak,115.05,-24.93333
Walagnumming,117.4,-29.05
River Wakefield,138.16667,-34.16667
Waitunna Well,132.9,-26.96667
Waitpinga Creek,138.48333,-35.63333
Waitpinga,138.53333,-35.6
Waitoona Rockhole,132.91667,-27.43333
Waite River,134.5,-22.46667
Waite Hill,139.21667,-33.01667
Waite Creek,130.68333,-22.61667
Waite Creek,134.5,-22.48333
Mount Waite,121.9275,-27.56089
Wairminnie Rockhole,134.36667,-20.11667
Wainwright Soaks,117.01667,-30.25
Waimate Waterhole,132.43333,-14.9
Wailgulya Well,115.5,-27.53333
Wailarra Hills,130.26667,-25
Waikerie,139.98552,-34.18178
Waigen Lakes,128.8169,-27.60249
Waiakbohn Waterhole,132.85,-16.5
Wahroonga,114.3992,-25.49067
Wahlgu Rockholes,125.18333,-27.05
Wahkinup Brook,116.73333,-33.88333
Wahja Spring,123.26667,-17.13333
Waguin,122.06667,-26.56667
Wagin Lake,117.3473,-33.32822
Wagin,117.34328,-33.30894
Waggrakine,114.61667,-28.71667
Waggoon Pool,116.56667,-23.15
Waggon Wheel Lagoon,133.56667,-14.85
Waggonette Creek,131.71667,-16.03333
Waggon Creek,128.6,-15.35
Wagga Wagga Station,116.95,-28.33333
Waggabundi,139.4,-19.5
Waggaboonyah Range,139.38333,-20.16667
Wagerup,115.88333,-32.91667
Waelburra Well,120.56667,-19.78333
Waeel,117.11667,-31.61667
Wadulbarra Well,117.76667,-28.16667
Mount Wadsworth,129.43333,-24.63333
Wadniecoopa Hill,136.4,-27.21667
Wadmores Hill,138.91667,-30.1
Wadmadingalinda Lake,136.55,-28.8
Wadlalgla Hill,136.71667,-28.01667
Wadjekanup River,117.6,-34.01667
Wadgingarra,116.73333,-28.28333
Wades Bluff,127.08333,-15.76667
Wade Creek,126.3,-14.25
Waddy Reach,128.75,-15.8
Wadduwarra Rocks,117.56667,-28.05
Waddutharra Pool,117.65,-28.15
Waddouring Hill,117.85,-30.93333
Waddoin,118.6,-30.56667
Waddi Waddi,115.58333,-30.6
Waddington Bluff,139.21667,-32.53333
Waddington,116.25,-30.85
Waddikee Rockhole,135.9,-33.16667
Mount Waddikee,134.4628,-27.8962
Waddikee,136.21667,-33.31667
Waddi Forest,116.16667,-29.86667
Wadderin Hill,118.45,-32
Wadderin Hill,118.43333,-31.98333
Waddawalla,125.85,-21.66667
Waddarie Well,115.96667,-27.08333
Waddalynia Rockhole,125.21667,-31.1
Waddagun Waterhole,139.23333,-16.56667
Wadara Range,121.18333,-22.96667
Wadamunga Lagoon,134.95,-14.81667
Wadamoolooloo Hill,138.46667,-27.36667
Wadabuna,123.75,-31.61667
Wacla Wells,135.5,-33.76667
Wackinelburn Well,119.38333,-20.45
Wabricoola,139.4,-32.43333
Wabli Pool,116.26667,-24.83333
Wabling Hill,115.66667,-31.41667
Wabbing Hill,116.98333,-32.4
Vulcan Islands,124.45,-15.25
Von Treuer Tableland,122.88333,-26.63333
Mount Von Mueller,121.1653,-27.78174
Von Doussa Hill,130.63333,-25.78333
Voltaire Passage,125.63333,-14.23333
Cape Voltaire,125.58333,-14.26667
Vokes Hill,130.56667,-28.51667
Voca Vocana Hill,138.86667,-30.36667
Vlaming Head,114.08333,-21.8
Mount Vizard,134.73331,-14.8167
Vivonne Bay,137.19994,-35.98416
Cape Vivonne,133.66667,-32.2
Mount Vivian,135.88478,-30.35747
Virginia Range,123.73333,-27.9
Point Virginia,123.71667,-27.88333
Virginia,138.56027,-34.6663
Mount Virchow,116.3511,-21.12423
Viotti Peak,127.75,-14.96667
Violet Valley,128.06667,-17.2
Violet Range,120.56667,-27.53333
Lake Violet,120.2386,-26.64618
Viney Island,124.0152,-16.01276
Vine Vale,139,-34.51667
Mount Vinden,115.645,-27.01401
Mount Vincent,116.254,-32.36406
Mount Vincent,125.2843,-17.13609
Vimy Ridge,138.76667,-35.01667
Cape Villaret,122.06667,-18.31667
View Hill Range,128.16667,-15.25
View Hill,139.45,-29.65
View Hill,113.76667,-23.15
View Hill,129.03333,-17.31667
View Hill,129.46667,-16.8
Victory Creek,121.01667,-28.53333
Victors Well,131.88333,-26.48333
Victoria Well,119.51667,-27.51667
Victoria Shoal,132.06667,-12.01667
Victoria Rock,116.38333,-20.73333
Victoria River Downs,131.01566,-16.40374
Victoria River Depot,130.6,-15.43333
Victoria River,129.71667,-15.2
Victoria Reservoir,116.06667,-32.05
Victoria Point,137,-33.73333
Victoria Peak,131.05544,-15.99555
Victoria Creek,138.85,-34.68333
Port Victoria,137.45,-34.45
Mount Victoria,139.86905,-31.95684
Mount Victoria,114.3498,-28.1832
Victoria,119.1,-30.18333
Victor Harbor,138.62154,-35.55042
Victor Harbour,138.63333,-35.55
Victor Creek,138.75,-19.15
Mount Victor,139.55545,-32.05018
Vickery Reef,123.48333,-16.33333
Vickery Island,123.3477,-16.48471
Vickers Creek,121.66667,-27.76667
Vetters Sand Hill,121.23333,-30.28333
Verscher Range,120.06667,-25.76667
Verran Hill,136.1,-33.85
Verran,136.31667,-33.85
Veros Hills,134.2,-25.51667
Veronica Island,136.78461,-12.0439
Vernon Islands,131.0333,-12.0833
Vernon Hill,133.91667,-27.01667
Mount Vernon,119.2512,-32.78625
Mount Vernon,118.0336,-24.14563
Verne Hill,115.18333,-30.38333
Verdun,138.78333,-35
Verdon Rock,138.66667,-18.98333
Verdon Creek,138.76667,-18.98333
Veranus Island,115.56667,-20.65
Venus Bay,134.68333,-33.23333
Venus Bay,134.65701,-33.18922
Venny Peak,114.9422,-24.829
Vennachar Point,136.53333,-35.88333
Mount Venn,123.5142,-28.08171
Venn,115.9,-32.56667
Velkerri Creek,133.73333,-14.36667
Veldt,132.9,-14.68333
Veda Spring,131.45,-14.96667
Vaughan Spring,130.91667,-22.3
Vaughan Hill,134.08333,-26.95
Vaudan,138.86667,-35.51667
Vasse River,115.35,-33.65
Vasse Estuary,115.38333,-33.63333
Vasse,115.25,-33.66667
Vashon Head,131.98333,-11.13333
Varriel Well,119.68333,-20.73333
Varley Rock,119.51667,-32.8
Varley Rock,119.38333,-32.6
Lake Varley,119.369,-32.68041
Mount Varden,122.3967,-28.16589
Varcoe Island,138.90102,-35.54196
Van Tuyn Point,122.28333,-17.08333
Vansittart Bay,126.3068,-14.03997
Vandyke Well,116.56667,-24.36667
Van Diemen Gulf,132,-11.83333
Cape Van Diemen,139.68333,-16.51667
Cape Van Diemen,130.38333,-11.16667
Vanderlin Island,137.02576,-15.70909
Cape Vanderlin,137,-15.58333
Vancouver Rock,117.98833,-35.14306
Vancouver Point,128.2,-14.83333
Cape Vancouver,118.19056,-35.02417
The Valley Well,135.48333,-30.11667
The Valley Waterhole,139.28333,-20.38333
Valley Hill,130.66667,-15.46667
Valley Creek,138.55,-35.55
Valentine Island,123.3255,-17.08527
Valentine Creek,128.66667,-15.68333
Valencia Island,132.7833,-11.3833
Valcallia Well,115.9,-25.9
Vaddingilla Rockhole,135.65,-20.8
Uworra,133.33333,-31.96667
Uwinya Hill,138.68333,-27.95
Utopia,134.55,-22.23333
Utera,136.91667,-33.55
Utakarra,114.65,-28.78333
Utahlarba Spring,119.26667,-26.06667
Utahlarba Soak,119.53333,-26
Useless Loop,113.38333,-26.13333
Useless Inlet,113.33333,-26.16667
Usborne Point,123.51667,-16.66667
Usborne Island,123.6432,-16.10638
Port Usborne,123.5,-16.65
Urripie Well,138.7,-32.08333
Urripie Creek,138.61667,-32.1
Urquhart Islet,136.95384,-15.5021
Uroonda Hill,138.46667,-32.21667
Uroonda,138.61667,-32.16667
Uro Bluff,137.56667,-32.13333
Uro Bluff,137.58333,-32.11667
Mount Uro,138.95055,-30.75289
Uritu Spring,129.03333,-19.53333
Urella,115.4006,-29.04987
Urawa Gully,115.46667,-28.21667
Uraryie,123.36667,-31.18333
Urary,122.3,-27.43333
Urara Pool,115.55,-24.21667
Urapunga,134.53333,-14.73333
Urapunga,134.56458,-14.7102
Uranno Creek,135.98333,-34.23333
Uranno,135.83333,-34.25
Uranie Bank,113.25,-25.2
Urania Reservoir,137.61667,-34.5
Urania,137.6,-34.51667
Urandy Creek,115.9,-22.58333
Urandangi,138.3,-21.6
Uranara Well,136.93333,-22.7
Uramurdah Well,120.35,-26.65
Uramurdah Lake,120.5095,-26.66201
Urama Well,115.08333,-22.1
Ural Well,125.48333,-22.13333
Uralo Well,115.91667,-26.8
Uralla Rocks,119.86667,-33.18333
Uraidla,138.74445,-34.95596
Urady,116.26667,-22.31667
Urabi Well,132.06667,-31.76667
Upper Walloona Pool,117.5,-21.78333
Upper Swan,116.01667,-31.76667
Upper Sturt,138.68333,-35.01667
Upper Sturt,138.66667,-35.03333
Upper Panton River,127.85,-17.88333
Upper Chapman Brook,115.18333,-34.08333
Upper Blackwood,116.5,-33.83333
Uno,136.68333,-32.63333
Unmoorinna Hill,130.1853,-27.43239
Unley,138.6,-34.95
Unkumilka Waterhole,138.3,-28.65
Unknown Island,113.33333,-26.31667
Union Reef Station,131.78333,-13.71667
Union Hill,131.81667,-31.71667
Unie Well,116.63333,-24.13333
Unicup Lake,116.7296,-34.34407
Unguni Bore,122.78333,-17.93333
Ungarra,136.03333,-34.18333
Ungalootanna Hill,133.95,-26.6
Ungalete Pool,123.03333,-17.31667
Undurraja Soak,135.26667,-22.35
Undulka Well,131.86667,-26.08333
Unducurra Hill,134.28333,-26.46667
Mount Undoolya,134.10001,-23.7333
Undoolya,134.03333,-23.68333
Undini Rockhole,128.16667,-31.83333
Undilla,138.63333,-19.61667
Underwoods Hill,139.35,-34.86667
Undernow Waterhole,135.3,-17.63333
Underginnie Well,117.13333,-29.35
Undawidgi Rockhole,127.48333,-31.75
Undalya Station,138.7,-34.06667
Undalya,138.68333,-34.06667
Uncle Island,127.8379,-14.37301
Unawahlurk Billabong,133,-12.33333
Una Rockhole,117.93333,-27.88333
Unaly Hill,118.96667,-28.4
Unalla Hill,136.18333,-32.35
Unalla,138.9,-35.13333
Umyxera Creek,130.71667,-14.8
Umina Hill,138.8,-28.1
Umbum Creek,136.65,-28.33333
Umbubernatana Waterhole,134.33333,-26.31667
Umbimiam Creek,133.73333,-14.36667
Umberutna,138.46667,-31.61667
Umberumbera Waterhole,137.95,-22.8
Umberdidinna Hill,131.78333,-27.2
Umberatana,139.13333,-30.25
Umbeara Well,133.76667,-25.93333
Umba Creek,116.23333,-25.18333
Umaroona Lake,138,-27.08333
Umaroona Hill,137.96667,-27.05
Ulva,118.2,-31.6
Uluru National Park,131.03668,-25.34573
Ulura Well,115.53333,-24.2
Ulupnia Well,114.36667,-24.1
Ulupna Creek,138.2,-19.2
Mount Ultim,135.39999,-22.47992
Ulrich Range,123.03333,-27.31667
Mount Ulric,117.1802,-21.81506
Ulowarrina Waterhole,136.35,-27.16667
Uloowaranie Hill,139.45,-26.41667
Lake Uloowaranie,139.46529,-26.40017
Ulooloo,138.88333,-33.33333
Ulonging Hill,117.56667,-32.06667
Uloganna,117.21667,-27.58333
Ullumbay Soak,119.96667,-30.76667
Ullawarra,116.18333,-23.25
Ullarra Well,115.1,-23.48333
Ullaring,116.86667,-31.5
Ullabidnie Reservoir,136.83333,-33.66667
Ullabbracolla Waterhole,136.58333,-27.45
Ulginuli Waterhole,135.33333,-19
Uley,135.55,-34.75
Uleroo Rockhole,135.28333,-33.03333
Uldirra Hill,132.25,-22.33333
Uldirika Dam,133.06667,-23.55
Ulbana,138.66667,-35.4
Ularring,120.53333,-29.93333
Ulakine Well,117.63333,-31.91667
Uindait Creek,129.6,-17.16667
Ugnum Waterhole,136.1,-27.65
Ugarling Pool,115.55,-24.21667
Uendoo Pool,113.73333,-25.03333
Mount Udor,131.02092,-23.49678
Mount Udor,130.83333,-23.46667
Udialla,123.7382,-17.94638
Udenberry Hill,116.91667,-31.01667
Uddadunning Rock,120.48333,-30.41667
Udarrup Spring,119.96667,-33.65
Udarra Soak,123.41667,-31.18333
Udardunging Soak,120.41667,-30.48333
Udandarra Gully,114.56667,-28.35
Ucutanna Hill,135.83333,-27.41667
Ucontitchie Hill,135.23333,-33.2
Ucolta,138.96667,-32.95
Ucharonidge Waterhole,134.23333,-17.65
Ucarro Hill,136.43333,-32.58333
Ubini,120.95,-30.98333
Uaroo,115.3714,-22.78231
Uannup Brook,117.18333,-34.23333
Uanna,117.15,-27.6
Tyson Creek,137.21667,-17.96667
Tyrer Well,116.28333,-27.95
Tyrer Island,123.38333,-16.28333
Tyr-an-og,138.63333,-35.4
Tyra Island,123.1041,-16.4436
Mount Tymn,131.22029,-13.31092
Two Wheeler Creek,137.11667,-35.98333
Two Wells,138.51367,-34.59327
Two Sisters Spring,136.33333,-29.15
The Two Sisters,120.46667,-28.28333
Two Sisters,139.56667,-35.51667
Two Sisters,132.25,-13.8667
Two Sisters,138.95,-32.6
Two Peoples Bay,118.189,-34.95351
Two Mile Well,113.4,-24.35
Two Mile Well,115.23333,-23.6
Two Mile Well,115.1,-23.15
Two Mile Well,119.58333,-20.66667
Two Mile Well,118.08333,-20.5
Two Mile Waterhole,114.83333,-22.48333
Two Mile Waterhole,139.53333,-21.71667
Two Mile Hill,114.65,-28.38333
Two Mile Creek,122.05,-26.23333
Two Mile Creek,133.38333,-16.23333
Two Mile Bore,125.3,-17.93333
Two Hills Well,115.45,-24.35
Two Hills Bay,132.05,-11.5
The Two Hills,116.58333,-34.48333
Two Hills,138.2,-23.41667
Twin Table Hill,116.85,-20.9
Twin Swamp,122.65,-26.51667
Twins Rock,134.41667,-30.2
Twins Mount,130.7782,-14.9176
The Twins Creek,139.05,-29.63333
The Twins,132.9,-24.81667
The Twins,118.56667,-31.21667
The Twins,129.01667,-16.33333
The Twins,114.7,-28.7
The Twins,125.46667,-17.83333
Twin Rocks,122.26667,-34.38333
Twin Rocks,131.13333,-31.46667
Twin Peaks,117.91667,-34.68333
Twin Peaks,115.96667,-27.38333
Twin Peaks,120.53333,-22.18333
Twin Peaks,130.66667,-13.76667
Twin Peaks,115.96667,-27.41667
Twin Peak Islands,122.83333,-34
Twin Lakes,137.60173,-27.98808
Twin Islets,118.375,-34.94806
Twin Island,115.2,-21.51667
Twin Hills,135.75,-24.86667
Twin Hills,138.16667,-23.28333
Twin Hills,130.3,-20.56667
Twin Hills,129.45,-17.1
Twin Hill,136.96667,-29.65
Twin Hill,113.81667,-22.88333
Twin Heads,126.5,-20.21667
Twilight Cove,126.05,-32.25
Twertup Creek,119.38333,-34
Twertatup Creek,119.88333,-33.63333
Twenty-Two Mile Waterhole,129.45,-18.1
Twenty-Six Mile Well,119.2,-30.95
Twenty-Six Mile Rock,121.31667,-31.93333
Twenty Ounce Gully,120.3,-21.2
Twenty Mile Pool,116.3,-22.96667
Twenty Mile Hill,138.05,-29.96667
Twenty Mile Creek,120.31667,-21.7
Twenty-Five Mile Rock,121.63333,-31.95
Twenty-Five Mile Hill,116.38333,-31.86667
Twenty-Eight Mile Tanks,134,-31.81667
Twelve Springs Creek,139.8,-29.7
Twelve Springs,139.66667,-29.83333
Twelve Mile Well,115.76667,-27.06667
Twelve Mile Well,116.35,-24.31667
Twelve Mile Well,115.3,-23.16667
Twelve Mile Well,114.36667,-23.13333
Twelve Mile Well,132.36667,-19.61667
Twelve Mile Waterhole,139.4,-18.81667
Twelve Mile Waterhole,130.53333,-15.76667
Twelve Mile Mountain,139.64999,-23.56667
Twelve Mile Dam,139.43333,-33.05
Twelve Mile Creek,136.95,-19.75
Twelve Mile Creek,139.36667,-17.95
Twelve Mile Brook,117.85,-34.91667
Tweedies Gully,138.9,-34.61667
Tutu Well,116.73333,-27.93333
Tutunup,115.58333,-33.66667
Tutunup,115.6,-33.65
Tutula Well,114.16667,-27.61667
Tutu Bore,124.21667,-18.4
Tutop Ridge,137.15,-30.03333
Tutawa Gully,115.63333,-28.26667
Tutakin Well,117.63333,-31.85
Turummunda Rockhole,120.78333,-22.51667
Port Turton,137.38333,-34.95
Turtle Well,116.91667,-27.45
Turtle Point,129.21667,-14.83333
Turtle Point,132.1,-11.2
Turtle Lagoon,137.55,-16.35
Turtle Lagoon,131.31667,-13.68333
Turtle Islands,118.85,-19.95
Turtle Islet,136.96181,-15.58714
Turtle Dove Shoal,114.2,-29.35
Turtle Bay,112.9833,-25.49167
Turpentine Creek,139.71667,-21.86667
Turners Well,116.71667,-27.71667
Turners Well,116.5,-26.8
Turners Well,114.28333,-24.98333
Turners Well,114.73333,-24.66667
Turners Dome,131.73333,-21.78333
Turner River,117.08333,-22.86667
Turner River,128.26667,-17.86667
Turner Point,133.53333,-11.78333
Turner Hills,128.13333,-23.73333
Turner Hill,130.86667,-27.35
Turner Creek,118.25,-25
Turner Creek,118.68333,-23.91667
Mount Turner,117.41667,-22.7
Mount Turner,122.45,-30.61667
Mount Turnbull,131.94141,-21.04318
The Turnback,126.21667,-17.8
Turkey Well Out Camp,125.6,-18.53333
Turkey Hill,119.28333,-31.11667
Turkey Hill,124.35,-28.13333
Turkey Creek,120.96667,-28.51667
Turkey Creek,135.85,-22.18333
Turkey Creek,134.48333,-20
Turkey Creek,135.1,-18.03333
Turkey Creek,134.93333,-14.61667
Warmun,128.21069,-17.02939
Turkey Camp Well,119.08333,-20.78333
Turimbinya Pool,118.08333,-20.53333
Turi Ari Hill,116.31667,-28.65
Turee Creek,117.41667,-23.58333
Turee Creek,118.6564,-23.62395
Tuperu Waterhole,134.4,-13.9
Tuperdunya Spring,119.16667,-23.5
Tupanna Waterhole,136.9,-27.75
Tunney Island,122.814,-33.96094
Tunney Creek,117.33333,-34.08333
Lake Tunney,118.9232,-33.02181
Tunnel Creek,118.4,-24.11667
Tunkillia Well,134.8,-31.18333
Tunkillia Rockhole,134.78333,-31.15
Tunkawanna Creek,117.5,-21.66667
Tunkalilla Creek,138.33333,-35.65
Tunkalana Waterhole,136.45,-27.5
Tunindi Well,116.01667,-26.01667
Tungkillo,139.06667,-34.81667
Tungketta Hill,135.06667,-33.75
Lake Tungketta,135.09642,-33.7633
Tunganary Waterhole,127.31667,-17.66667
Tumulus Hill,128.05,-15.05
Tumpawarinna Hill,138.41667,-27.43333
Tumby Island,136.14027,-34.4093
Tumby Bay,136.10333,-34.37506
Tumby Bay,136.1369,-34.36791
Tumbiana Pool,120.48333,-21.23333
Tumbardkuk Springs,133.6,-14.38333
Tumagee Waterhole,127.43333,-17.73333
Tully Inlet,138.15,-16.7
Tullis,116.36667,-32.8
Tulki Well,113.9,-22.08333
Tulkineara,139.2,-35.7
Tulburrerr Island,139.29334,-16.75194
Tukoma Well,132.76667,-31.95
Tukle Jenna Rock,123.7,-33.68333
Tug River,134.78333,-23.31667
Tudor,117.48333,-34.98333
Tucknotts,135.15,-33.76667
Mount Tuckfield,124.9,-18.73333
Tuckey Reservoir,136.1,-33.66667
Tuckey,136.1,-33.68333
Tucker Reef,123.3,-16.13333
Tuckerbiano Well,118.4,-27.5
Tucker Bank,128.33,-14.77417
Mount Tucker,115.3555,-23.37648
Tuckanarra Hill,118.08333,-27.16667
Tuckanarra,118.08333,-27.11667
Tuckaby Well,131.63333,-31.45
Tuckabeena Well,118.13333,-27.45
Tuchinbingina Tank,134.28333,-32.26667
Tubridgi Reef,114.53333,-21.86667
Tubridgi Point,114.65,-21.83333
Ttooldalin Waterhole,139.28333,-16.63333
Tryon Point,121.61667,-18.73333
Tryal Rocks,115.46667,-20.58333
Truslove Lagoon,121.75,-33.38333
Truslove,121.7,-33.35
Truscott Hills,123.33333,-27.85
Truro Creek,139.31667,-34.43333
Truro,139.11667,-34.41667
Truant Island,136.8235,-11.6703
Mount Troy,123.5835,-18.70972
Troughton Passage,126.16667,-13.83333
Troughton Island,126.1494,-13.75333
Troubridge Shoals,137.8,-35.13333
Troubridge Point,137.68333,-35.18333
Troubridge Hill,137.63333,-35.16667
Trotman Hills,122.25,-21.93333
Troopers Knob,138.73333,-28.66667
Trollup Hill,117.01667,-34.2
Trivalve Well,116.88333,-27.48333
Tripod Well,114.76667,-23.28333
Triple Well,116.85,-26.88333
Triple Hill,136.63333,-33.71667
Mount Trio,118.1051,-34.34739
Trinity Well,115.05,-23.48333
Trinity Reach,130.73333,-15.46667
Trimouille Island,115.5638,-20.39479
Point Trim,126.08333,-27.7
Trilbar,118.08333,-25.9
Trigwell,115.7,-33.48333
Trigg,115.7571,-31.86939
Trickett Creek,132.1,-24.43333
Triangle Well,135.91667,-31.96667
Trial Well,131.61667,-31.21667
Trial Hill,138.95,-34.61667
Trial Bay,136.548,-13.0225
Trews Gap,129.83333,-26.03333
Mount Trew,120.6408,-22.97615
Mount Trevor,124.86667,-15.55
Treuer Range,131.16667,-22.23333
Trepang Bay,131.95,-11.2167
Trenton Hill,117.8,-27.48333
Mount Treloar,134.34959,-26.26288
Trekelano,139.9,-21.5
Tregolana,137.56667,-32.88333
Tregenna Reef,131.06667,-11.96667
Treesville,116.3,-33.16667
Tree Point,129.63333,-14.01667
Tree Point,131.01667,-12.3
Treen Brook,116,-34.48333
Tree Island,123.3093,-16.38666
Tree Hill,118.11667,-22.08333
Tree Hill,122.1,-18.36667
Tree Hill,128.53333,-17.9
Tree Cliff,138.31667,-29.36667
Trecompana Hill,136.55,-29.53333
Trebilcocks Hill,139.36667,-29.6
Trealla Well,114.05,-22.18333
Treachery Bay,129.39314,-14.46801
Mount Treachery,132.27185,-22.0833
Traysurin Hill,118.08333,-32.93333
Traysurin,117.93333,-32.83333
Trayning Well,117.8,-31.05
Trayning,117.8,-31.11667
Travellers Rest Bore,139.06667,-32.86667
Travellers Bore,124.46667,-17.31667
Trap Reef,115,-21.4
Trap Hill,128.58333,-20.76667
Transit Hill,129.5,-15.23333
Trainors Hill,133.4,-27.35
Trainor Hills,122.48333,-24.2
Trainers Rocks,119.08333,-29.11667
Traine River,126.3,-17.33333
Tragedy Pool,123.85,-18.05
Trafina Creek,134.41667,-23.55
Mount Trafalgar,125.0685,-15.27803
Trafalgar,121.51667,-30.78333
Tracys Well,118.1,-20.73333
Towry Well,114.03333,-26.41667
Towrana,115.2295,-25.43594
Towns River,135.43333,-14.88333
Townshend River,123.96667,-16.75
Townshend Creek,131.31667,-16.76667
Mount Townshend,134.66093,-25.5837
Townsend Well,119.48333,-27.11667
Townsend Soak,118.63333,-32.03333
Townsends,117.63333,-27.23333
Townsend Range,127,-26.35
Mount Townsend,119.4995,-27.14286
Town Bore,139.48333,-20.73333
Towitta Creek,139.3,-34.53333
Towitta,139.25,-34.53333
Towinna Hill,138.06667,-26.91667
Tower Rock,135.0793,-22.46782
Towerrinning Lake,116.78333,-33.58333
Tower Peak,123.4751,-33.44481
Tower of Babel,138.55,-35.46667
Towerlup Brook,117,-34.15
Tower Hill,117.25,-35.01667
Tower Hill,116.08333,-33.06667
Tower Hill,137.56667,-31.76667
Tower Hill,138.53333,-30.23333
Tower Hill,130.71667,-15.66667
Tower Gap Creek,138.63333,-30.3
Tower Creek,132.56667,-22.21667
Toweranna,117.88333,-20.96667
Towerana Well,117.23333,-21.45
Towera,115.1197,-23.17454
Towels Well,114.63333,-23.15
Towels Dam,114.6,-23.16667
Towbulbulan River,139.63333,-16.45
Tourville Bay,133.46233,-32.14829
Tournefort Island,125.05,-14.75
Cape Tournefort,135.85,-34.91667
Toudinny Waterhole,134.03333,-17.48333
Touche Siding,115.95,-29.83333
Tothill Creek,138.91667,-34.1
Totadjin Well,118.21667,-31.56667
Tory Islands,122.3082,-34.01317
Tortoise Reach,130.83333,-15.56667
Tortoise Island,114.8608,-21.58008
Tortachilla,138.48333,-35.23333
Tor Rock,133.16667,-11.86667
Torrens Vale,138.36667,-35.51667
Torrens River,138.5,-34.93333
Torrens Island,138.53064,-34.79177
Mount Torrens,138.94177,-34.87344
Lake Torrens,137.85667,-31.02172
Cape Torrens,136.71667,-35.73333
Cape Torrens,125.11667,-14.95
Torradup River,121,-33.8
Torpedo Creek,139.45,-19.58333
Torombo Well,132.28333,-31.8
Torment Spit,123.61667,-16.95
Point Torment,123.6,-17
Tordit Gurrup Lagoon,116.73333,-34.5
Torbay Inlet,117.67611,-35.03194
Torbay Hill,117.62139,-35.08
Torbay Head,117.63722,-35.13528
Torbay,117.66056,-35.02333
Top Well,116.43333,-27.81667
Topwater Waterhole,139.9,-18.4
Topsy Springs,126.53333,-16.96667
Topsy Creek,131.31667,-17.45
Top Spring,116.86667,-24.68333
Top Spring,129.86667,-17.53333
Top Spring,131.8,-16.63333
Top Spring,135.68333,-17.03333
Top Split Creek Bore,139.11667,-21.68333
Mount Tops,134,-21.85
Top Pindan Out Camp,124.46667,-18.31667
Mount Toppin,123.95,-28.71667
Top Gap Well,116.93333,-23.85
Topgallant Islands,134.63333,-33.71667
Topenup Hill,116.9,-33.65
Top Camp Well,118.26667,-21.26667
Top Bore,138.66667,-21.06667
Top Bore,137.76667,-20.16667
Top Arthur River Well,115.58333,-24.8
Tootla Well,134.73333,-32.86667
Toothawardoo Bore,114.63333,-23.7
Toothagoona Rockhole,118.08333,-29.48333
Tootaning Spring,117.9,-31.28333
Tootanallup Lagoon,117.15,-34.48333
Tooroowilpa Hill,139.43333,-26.26667
Lake Tooroopolinna,139.96667,-27.16667
Tooroopinkanie Hill,139.61667,-27.28333
Lake Tooroopinkanie,139.65929,-27.25105
Toorndooginna Rockhole,132.2,-26.91667
Toorndinnia Pool,119.21667,-25.43333
Toorjing Spring,116.35,-27.01667
Tooregullup Swamp,119.48333,-34.31667
Toorare Pool,116.8,-20.98333
Toorapalanna Waterhole,138.48333,-28.65
Tooran Waterhole,139.75,-37.01667
Toorak Reservoir,121.16667,-30.93333
Toora,139.3,-35.08333
Toopoora,136.38333,-33.18333
Tooperang,138.73333,-35.38333
Toopenaagunyah Well,119.63333,-20.08333
Toopawarrinna Hill,138.75,-29.4
Toonil Spring,123,-26.2
Toongoowahgun Inlet,139.38333,-16.61667
Toongamoona Creek,136.7,-29
Toondulya Well,134.95,-32.15
Toondulya Bluff,134.95,-32.13333
Toondi Rockhole,126.91667,-31.96667
Mount Toondina,135.36054,-27.94326
Tooncatchyin Creek,139.41667,-29.16667
Toonagundy Well,116.58333,-26.91667
Toompup,118.45,-34.01667
Toomoon Creek,138.71667,-21.7
Toomoon Bore,138.65,-21.55
Toomey Hills,119.66667,-31.61667
Toombingidge Pool,120.76667,-20.78333
Toomananto Well,135.5,-33.51667
Toolunga Pool,115.56667,-21.98333
Toolunga,138.76667,-34.68333
Tooloo Bluff,122.21667,-26.45
Toolonga Hills,114.23333,-27.6
Toolngin Island,123.13333,-16.4
Toolina Rockhole,124.96667,-32.73333
Tooligie Range,135.85,-33.78333
Tooligie Hill,135.85,-33.8
Tooligie,135.7,-33.85
Tooliganbilly Waterhole,134.65,-18.6
Toolibin Lake,117.6068,-32.91877
Toolibin,117.63333,-32.95
Toolgerie Rockhole,131.7,-31.4
Toolgana Rockhole,128.61667,-31.61667
Toolerinna Swamp,138.53333,-28.7
Tooleburrup Hill,119.36667,-34.43333
Toolbrunup Lake,117.81667,-34.1
Toolbrunup,117.83333,-34.01667
Toolbrunup Peak,118.1,-34.4
Toola Well,115.96667,-27.21667
Toolaway Waterhole,134.73333,-18.98333
Toolapinna Soakage,137.9,-27.88333
Tooker Point,122.51667,-16.91667
Toohey Well,116.31667,-24.48333
Toodyay Creek,116.18333,-31.41667
Toodyay Brook,116.45,-31.53333
Toodyay,116.46743,-31.54977
Mount Toodlery,136.55116,-27.87865
Mount Toodla,135.90446,-27.64095
Toodacaraddy Pool,114.23333,-25.8
Toocalup Swamp,119.13333,-34.4
Tonys Well,120.01667,-21.46667
Tonyanna Well,118.76667,-20.6
Tonimelba Pool,116,-23.15
Tongue Shoals,114.85,-21.65
Tongololo Creek,121.13333,-22.1
Tongerung Well,117.35,-31.9
Tone River,116.41667,-34.41667
Tom Tom Spring,136.31667,-29.13333
Toms Well,116.11667,-25.23333
Toms Well,115.81667,-22.96667
Toms Well,116.83333,-20.78333
Toms Rock,130.36667,-17.73333
Tom South Lake,117.6379,-34.24517
Toms Lagoon Creek,134.83333,-16.2
Toms Hill,138.13333,-30.13333
Tommy Well,115.93333,-24.33333
Tommy Creek,127.25,-15.93333
Tomkinson River,134.18333,-12.11667
Tomkinson Ranges,129.08333,-26.18333
Tomkinson Creek,133.6,-18.51667
Tominappi Creek,130.73333,-11.8
Tom Gibbs Well,139.96667,-36.01667
Tomelton Brook,114.58333,-28.31667
Tom Bull Pool,116.11667,-21.06667
Tomahawk Creek,138.71667,-19.43333
Tolowan Waterhole,133.78333,-14.31667
Tolmers Well,139.56667,-36
Tolmers Hill,134.45,-30.7
Mount Tolmer,130.73669,-13.2214
Tolkerlup Swamp,116.73333,-34.33333
Tolderol Station,139.08333,-35.38333
Tolderol Point,139.16667,-35.36667
Tola Tank,136.3,-33.13333
Toko Range,138.33333,-23.08333
Toko Gorge,138.03333,-22.78333
Tojungunna Pool,116,-23.13333
Togobinna Pool,116,-23.16667
Tod River Reservoir,135.83333,-34.48333
Tod Ridge,137.16667,-30.81667
Mount Todmorden,134.47659,-27.39394
Todmorden,134.8,-27.13333
Todd River,135.8,-24.86667
Todd Ranges,126.23333,-25.73333
Todd Creek,127.71667,-16.1
Todd Bluff,134.58333,-14.8
Mount Todd,132.1333,-14.1333
Mount Todd,127.7638,-16.12635
River Tod,135.86667,-34.58333
Tobys Well,116.7,-25.4
Toby Creek,138.3,-21.4
Toby Creek,131.36667,-17.4
Tobin Well,115.8,-24.75
Tobin Lake,125.81667,-21.75
Tobin Hill,123.73333,-28.18333
Mount Tobin,139.28334,-23.4
Tobermorey,137.91667,-22.28333
Tobacco Well,116.88333,-20.78333
Toapin Rock,117.35,-31.96667
Tjudu Creek,130.28333,-11.65
Tjipripu River,130.78333,-11.5
Tiverton,139.7,-32.73333
Tivers Well,139.36667,-32.58333
Titree Well,116.06667,-24.35
Ti Tree Swamp,114.18333,-27.45
Titree Springs,137.53333,-18.5
Titree Flat,124.11667,-20.06667
Titra Well,133.3,-24.9
Titmush,130.48333,-20.6
Titania Spring,131.03333,-26.23333
Tiru Well,125.91667,-21.55
Tirrawee Well,115.1,-23.58333
Tirigie Well,113.98333,-24.63333
Tippo Creek,130.48333,-16.13333
Tippipilla Creek,139.06667,-27.01667
Tipperary,131.04393,-13.73269
Tiparra Reef,137.4,-34.05
Tiparra Bay,137.51669,-34.07275
Tipabina Creek,130.53333,-11.68333
Tintinara,139.96667,-35.9
Tintawarmnyah Pool,119.23333,-20.3
Tintana Hill,138.91667,-28.21667
Mount Tinstone,118.6742,-21.19472
Tinsels Claypan,135.45,-30.48333
Tinsels Bore,135.38333,-30.51667
Tin Pot Well,135.06667,-33.38333
Tinpot,138.93333,-35.15
Tinnargee Waterhole,137.86667,-23.45
Tinnacudinna Hill,138.55,-29.6
Point Tinline,137.61667,-35.98333
Mount Tinline,138.54742,-33.73602
Tinkurrin,117.76667,-32.96667
Tinkinnie Hill,138.01667,-28.05
Tinkers Brook,116.36667,-34.38333
Tinker Hill,131.8,-15.91667
Tinkelup Creek,118.5,-34.66667
Tin Hill Well,119.45,-31.03333
Tin Hill,119.46667,-31.05
Tin Hat Well,116.53333,-20.88333
Tinganoo Bay,131.47771,-11.3866
Tinfish Well,133.96667,-21.9
Tindog Waterhole,136.15,-27.46667
Tindlers Well,116.86667,-27.7
Tinderlong,115.8,-27.93333
Tindelpina Creek,139.05,-29.81667
Tindela Well,116.56667,-27.63333
Tindargoo Hill,136.73333,-27.45
Tindalls,121.16667,-30.98333
Tincurring Creek,117.86667,-33.08333
Tinberni Hill,134.01667,-13.98333
Tinbalang Station,138.73333,-35.51667
Tims Creek,125.16667,-16.25
Timperley Range,122.61667,-25.93333
Mount Timperley,127.9938,-18.46691
Timothy Creek,139.41667,-21.78333
Timor Lagoon,139.75,-17.78333
Timonys Bore,124.06667,-17.78333
Time Rock,122.03333,-33.95
Timber Point,139.25,-16.75
Timberfield,120.16667,-30.81667
Timber Creek,137.45,-35.9
Timber Creek,130.53333,-15.76667
Tilterana Creek,137.76667,-30.15
Tilmouth Well,132.58333,-22.83333
Tilmouth Waterhole,132.66667,-22.7
Tilly Gully,115.7,-26.65
Tilley Swamp,139.81667,-36.41667
Mount Tilley,138.8,-30.86667
Tilla Tilla Waterhole,138.21667,-28.58333
Tilgra Well,114.2,-24.31667
Tikirr Rockhole,128.83333,-24.88333
Tiffy Reef,123.41667,-16.43333
Mount Tieyon,133.81963,-26.26102
Tieyon,133.86667,-26.2
Tietken Tank,127.93333,-26.11667
Tietkens Well,131.66667,-29.98333
Tietkens Birthday Creek,132.58333,-25.96667
Mount Tietkens,130.15568,-26.74337
Mount Tietkens,137.21667,-23.13333
Tierny Hill,134.11667,-27.8
Tierney Spring,124.93333,-28.18333
Tieraco Creek,118.15,-26.46667
Tidna Ridge,137.95,-26.46667
Tidna Hill,139.26667,-29.55
Lake Tidnacoordooninna,138.49706,-28.89393
Tidnabucca Waterhole,136.23333,-27.16667
Mount Tidnabakina,136.06512,-27.35267
Tide Rip Islands,123.303,-16.30082
Tidepole Island,116.7066,-20.64811
Myponie Point,137.65,-33.83333
Tickera Bay,137.71932,-33.76871
Tickera,137.7,-33.78333
Tibradden Hill,114.86667,-28.78333
Tibingoona Pool,118.9,-25.23333
Thynkie Swamp,139.16667,-35.68333
Mount Thymanan,130.83333,-15.28333
Thursday Rock,120.73333,-31.53333
Thursday Creek,127.05,-18.1
Thurraguddy Creek,121.95,-25.98333
Thurlga Reservoir,135.71667,-32.38333
Thurlga,135.76667,-32.45
Thurburn Bluff,128.05,-14.61667
Thundulda,126,-32.26667
Thunderstorm Creek,134.53333,-29.3
Thunder Bay Blowholes,113.26667,-26.28333
Thunder Bay,113.2764,-26.29208
Thundelarra Well,117.11667,-28.88333
Thundelarra,117.13333,-28.88333
Thumb Peak,119.7248,-34.0332
Thuda Well,116.93333,-27.51667
Throssel Well,115.46667,-23.91667
Throssell Range,121.71667,-22.05
Throssell Range,126.06667,-17.4
Mount Throssell,122.6675,-25.99365
Mount Throssell,127.63333,-16.2
Lake Throssell,124.26667,-27.45
Mount Throsby,134.1167,-14.1667
Thrington,137.83333,-34.01667
Thring Swamp,134.26667,-20.8
Thrings Creek,131.81667,-12.23333
Thring Rock,123.9,-22.58333
Thring Creek,136.03333,-22.83333
Threeways Creek,138.48333,-21.98333
Threeway Bore,138.28333,-21.93333
Three Springs,115.76053,-29.53361
Three Sisters Soaks,117.86667,-29.9
The Three Sisters,139.56667,-20.86667
Three Sisters,135.4,-27.35
Three Rivers,119.1536,-25.12507
Three Pyramid Hills,129.76667,-21.31667
Three Peak Hills,116.13333,-21.73333
Three Peaked Hill,129.01667,-17.71667
Three Mile Well,115.95,-27.03333
Three Mile Well,116.91667,-24.35
Three Mile Well,116.01667,-22.96667
Three Mile Well,133.23333,-22.51667
Three Mile Rocks,118.9,-30.61667
Three Mile Gully,116.8,-33.5
Three Mile Bore,139.15,-21.26667
Three Knobs,135.48333,-16.5
Three Hummocks,136.76667,-12.73333
Three Hummock Point,137.06667,-15.63333
Three Hills,127.5,-24.96667
Three Graces,134.55,-14.2
Three Forges,135.5,-26.76667
Three Crown Hill,136.21667,-32.46667
Three Bays Island,113.6478,-26.55319
Thoutawidge Well,117.85,-29.06667
Cape Thouin,118.2,-20.33333
Thor Well,116.81667,-27.1
Thorocogycogy Well,117.13333,-28.68333
Thorny Passage,136.03333,-35
Thorntons Dam,139.06667,-32.66667
Thornton River Bore,138.91667,-19.38333
Thornton River,138.73333,-19.3
Thorntonia,138.93333,-19.5
Thorne Reef,124.15,-15.68333
Thorndon Park Reservoir,138.68737,-34.87459
Thornbury Reef,123.23333,-16.03333
Thorabandy Well,115.63333,-27.43333
Thooroo Hill,138.8,-28.05
Lake Thoopoocoonallie,138.18233,-27.32622
Thooloroy Well,116.11667,-26.1
Thoolmugga Well,116.35,-26.18333
Thooda Hill,138.53333,-28.18333
Thomson Hill,115.85,-33.61667
Thomson Brook,115.88333,-33.6
Mount Thomson,115.7922,-23.96093
Thompsons Rockhole,130.96667,-20.63333
Thompsons Hill,137.6,-26.56667
Thompson Salt Creek,138.5,-34.7
Thompsons Bore,124.45,-17.65
Thompson Lake,115.81667,-32.15
Thompson Creek,132.18333,-13.96667
Thompson Bay,136.72929,-13.80392
Thomas Well,116.26667,-24.71667
Thomas River,123.01667,-33.85
Thomas River,116.25,-24.73333
Thomas Reservoir,130.76667,-23.83333
Thomas Island,115.1685,-34.28909
Thomas Island,121.9854,-33.97567
Thomas Hill,126.83333,-26.2
Thomas Gully,138.71667,-35.13333
Thomas Bay,122.898,-16.48721
Mount Thomas,139.10728,-30.18468
Mount Thomas,132.8,-22.2833
Mount Thomas,130.76849,-13.56996
Mount Thomas,135.4113,-15.4614
Lake Thomas,137.96976,-26.0625
Cape Thomas,139.73333,-37.08333
Thistle Island,136.15059,-34.99544
Thistle Cove,122.2,-34
