CityName,Lat,Lon,Country,ISO,Province,Capital,Population
Malisheve,42.4822,20.7458,Kosovo,XKS,Malishevë,admin,0
Prizren,42.2139,20.7397,Kosovo,XKS,Prizren,admin,0
Zubin Potok,42.9144,20.6897,Kosovo,XKS,Zubin Potok,admin,0
Kamenice,42.5781,21.5803,Kosovo,XKS,Kamenicë,admin,0
Viti,42.3214,21.3583,Kosovo,XKS,Viti,admin,0
Shterpce,42.2394,21.0272,Kosovo,XKS,Shtërpcë,admin,0
Shtime,42.4331,21.0397,Kosovo,XKS,Shtime,admin,0
Vushtrri,42.8231,20.9675,Kosovo,XKS,Vushtrri,admin,0
Dragash,42.0265,20.6533,Kosovo,XKS,Dragash,admin,0
Podujeve,42.9111,21.1899,Kosovo,XKS,Podujevë,admin,0
Fushe Kosove,42.6639,21.0961,Kosovo,XKS,Fushë Kosovë,admin,0
Kacanik,42.2319,21.2594,Kosovo,XKS,Kaçanik,admin,0
Kline,42.6217,20.5778,Kosovo,XKS,Klinë,admin,0
Leposaviq,43.1039,20.8028,Kosovo,XKS,Leposaviq,admin,0
Peje,42.66,20.2922,Kosovo,XKS,Pejë,admin,0
Rahovec,42.3994,20.6547,Kosovo,XKS,Rahovec,admin,0
Gjilan,42.4689,21.4633,Kosovo,XKS,Gjilan,admin,0
Lipjan,42.5217,21.1258,Kosovo,XKS,Lipjan,admin,0
Obiliq,42.6869,21.0703,Kosovo,XKS,Obiliq,admin,0
Gjakove,42.3803,20.4308,Kosovo,XKS,Gjakovë,admin,0
Pristina,42.6666,21.1724,Kosovo,XKS,Prishtinë,primary,0
Decan,42.5378,20.2911,Kosovo,XKS,Deçan,admin,0
Istog,42.7808,20.4875,Kosovo,XKS,Istog,admin,0
Hani i Elezit,42.15,21.2967,Kosovo,XKS,Hani i Elezit,admin,0
Junik,42.4758,20.2772,Kosovo,XKS,Junik,admin,0
Kllokot,42.3714,21.3744,Kosovo,XKS,Kllokot,admin,0
Mamushe,42.3308,20.7269,Kosovo,XKS,Mamushë,admin,0
Partesh,42.4019,21.4336,Kosovo,XKS,Partesh,admin,0
Ranillug,42.4922,21.5989,Kosovo,XKS,Ranillug,admin,0
Ferizaj,42.3706,21.1553,Kosovo,XKS,Ferizaj,admin,0
Zvecan,42.9075,20.8403,Kosovo,XKS,Zveçan,admin,0
Suhareke,42.3586,20.825,Kosovo,XKS,Suharekë,admin,0
Gllogovc,42.6283,20.8939,Kosovo,XKS,Gllogovc,admin,0
Mitrovice,42.8833,20.8667,Kosovo,XKS,,admin,0
Skenderaj,42.7467,20.7886,Kosovo,XKS,Skenderaj ,admin,0
Novoberde,42.6178,21.4197,Kosovo,XKS,Novobërdë,admin,0
Gracanice,42.6011,21.1958,Kosovo,XKS,Graçanicë,admin,0
Longyearbyen,78.2167,15.6333,Svalbard,XSV,,primary,0
Sanaa,15.3547,44.2066,Yemen,YEM,Amānat al ‘Āşimah,primary,2008000
Marib,15.421,45.334,Yemen,YEM,Ma’rib,admin,16794
Al Jabin,14.704,43.599,Yemen,YEM,Raymah,admin,0
Hajjah,15.6917,43.6021,Yemen,YEM,Ḩajjah,admin,208287
Ibb,13.9759,44.1709,Yemen,YEM,Ibb,admin,234837
Al Hudaydah,14.7979,42.953,Yemen,YEM,Al Ḩudaydah,admin,780000
Lahij,13.0582,44.8838,Yemen,YEM,Laḩij,admin,66288
Al Mahwit,15.4701,43.5448,Yemen,YEM,Al Maḩwīt,admin,0
Taizz,13.6045,44.0394,Yemen,YEM,Ta‘izz,admin,751000
Sadah,16.9398,43.8498,Yemen,YEM,Şa‘dah,admin,105542
Dhamar,14.5575,44.3875,Yemen,YEM,Dhamār,admin,191259
`Amran,15.6594,43.9439,Yemen,YEM,‘Amrān,admin,0
Ad Dali`,13.6957,44.7314,Yemen,YEM,Aḑ Ḑāli‘,admin,0
Saywun,15.943,48.7873,Yemen,YEM,Ḩaḑramawt,minor,68747
Al Bayda,13.979,45.574,Yemen,YEM,Al Bayḑā’,admin,37821
Zinjibar,13.1287,45.3807,Yemen,YEM,Abyan,admin,0
Rida,14.4295,44.8341,Yemen,YEM,Al Bayḑā’,minor,45233
'Ataq,14.55,46.8,Yemen,YEM,Shabwah,admin,37315
Al Ghaydah,16.2394,52.1638,Yemen,YEM,Al Mahrah,admin,27404
Sayhut,15.2105,51.2454,Yemen,YEM,Al Mahrah,minor,189
Al Mukalla,14.5412,49.1259,Yemen,YEM,Ḩaḑramawt,admin,258132
Al Hazm,16.1641,44.7769,Yemen,YEM,Al Jawf,admin,0
Zabid,14.1951,43.3155,Yemen,YEM,Al Ḩudaydah,minor,152504
Aden,12.7797,45.0095,Yemen,YEM,‘Adan,admin,1000000
Hadiboh,12.6519,54.0239,Yemen,YEM,Arkhabīl Suquţrá,admin,11396
Ash Shihr,14.7593,49.6092,Yemen,YEM,Ḩaḑramawt,minor,54274
Dzaoudzi,-12.7871,45.275,Mayotte,MYT,,admin,32057
Pretoria,-25.7069,28.2294,South Africa,ZAF,Gauteng,primary,1338000
Lebowakgomo,-24.1996,29.5,South Africa,ZAF,Limpopo,,33308
Potchefstroom,-26.6996,27.1,South Africa,ZAF,North West,,123669
Graaff Reinet,-32.3,24.54,South Africa,ZAF,Eastern Cape,,62896
Rustenburg,-25.65,27.24,South Africa,ZAF,North West,,165976
Brandfort,-28.6996,26.47,South Africa,ZAF,Free State,,12091
Vryheid,-27.76,30.79,South Africa,ZAF,KwaZulu-Natal,,150012
Vereeniging,-26.6496,27.96,South Africa,ZAF,Gauteng,,1074000
Brits,-25.6296,27.78,South Africa,ZAF,North West,,122497
Bethlehem,-28.2196,28.3,South Africa,ZAF,Free State,,83654
Ubomba,-27.5661,32.0833,South Africa,ZAF,KwaZulu-Natal,,564
Polokwane,-23.89,29.45,South Africa,ZAF,Limpopo,admin,220045
Springbok,-29.6667,17.8833,South Africa,ZAF,Northern Cape,,10438
Thohoyandou,-22.95,30.48,South Africa,ZAF,Limpopo,,269707
Pietermaritzburg,-29.61,30.39,South Africa,ZAF,KwaZulu-Natal,admin,750845
Poffader,-29.1329,19.3834,South Africa,ZAF,Northern Cape,,4220
Carnarvon,-30.9496,22.1333,South Africa,ZAF,Northern Cape,,5785
Kroonstad,-27.66,27.21,South Africa,ZAF,Free State,,103992
Alexander Bay,-28.6083,16.5033,South Africa,ZAF,Northern Cape,,1500
Bloemhof,-27.6496,25.59,South Africa,ZAF,North West,,17122
Hermanus,-34.4096,19.2299,South Africa,ZAF,Western Cape,,25153
Bethal,-26.4696,29.45,South Africa,ZAF,Mpumalanga,,101919
Upington,-28.46,21.23,South Africa,ZAF,Northern Cape,,71373
Tzaneen,-23.8195,30.17,South Africa,ZAF,Limpopo,,67245
Vanhynsdorp,-31.6166,18.7333,South Africa,ZAF,Western Cape,,3331
Musina,-22.34,30.03,South Africa,ZAF,Limpopo,,20191
Kimberley,-28.7468,24.77,South Africa,ZAF,Northern Cape,admin,165264
Durban,-29.865,30.98,South Africa,ZAF,KwaZulu-Natal,,2729000
Klerksdorp,-26.88,26.62,South Africa,ZAF,North West,,178921
Welkom,-27.97,26.73,South Africa,ZAF,Free State,,431944
De Aar,-30.65,24,South Africa,ZAF,Northern Cape,,32318
Prieska,-29.6595,22.73,South Africa,ZAF,Northern Cape,,11236
Saldanha,-33.01,17.93,South Africa,ZAF,Western Cape,,68284
Middelburg,-31.5,25.01,South Africa,ZAF,Eastern Cape,,18164
Port St. Johns,-31.6279,29.5283,South Africa,ZAF,Eastern Cape,,5939
Volksrust,-27.3596,29.89,South Africa,ZAF,Mpumalanga,,43378
Ulundi,-28.3296,31.41,South Africa,ZAF,KwaZulu-Natal,,20753
Beaufort West,-32.3496,22.57,South Africa,ZAF,Western Cape,,44737
Komatipoort,-25.4096,31.94,South Africa,ZAF,Mpumalanga,,20508
Nelspruit,-25.4745,30.9703,South Africa,ZAF,Mpumalanga,admin,0
Standerton,-26.9395,29.24,South Africa,ZAF,Mpumalanga,,74021
Johannesburg,-26.17,28.03,South Africa,ZAF,Gauteng,admin,3435000
Kuruman,-27.4496,23.42,South Africa,ZAF,Northern Cape,,10006
Paarl,-33.6996,18.96,South Africa,ZAF,Western Cape,,187865
Worcester,-33.64,19.4399,South Africa,ZAF,Western Cape,,127597
Colesberg,-30.7195,25.1,South Africa,ZAF,Northern Cape,,12423
Umtata,-31.58,28.79,South Africa,ZAF,Eastern Cape,,137772
Aliwal North,-30.6896,26.71,South Africa,ZAF,Eastern Cape,,44436
Middelburg,-25.7596,29.47,South Africa,ZAF,Mpumalanga,,154706
Springs,-26.2696,28.43,South Africa,ZAF,Gauteng,,236083
Benoni,-26.1496,28.3299,South Africa,ZAF,Gauteng,,2986000
Port Shepstone,-30.7195,30.46,South Africa,ZAF,KwaZulu-Natal,,52793
Oudtshoorn,-33.58,22.19,South Africa,ZAF,Western Cape,,76708
Port Elizabeth,-33.97,25.6,South Africa,ZAF,Eastern Cape,,1021000
Port Alfred,-33.5995,26.88,South Africa,ZAF,Eastern Cape,,17959
East London,-32.97,27.87,South Africa,ZAF,Eastern Cape,,338627
Mossel Bay,-34.17,22.13,South Africa,ZAF,Western Cape,,16743
Vryburg,-26.96,24.73,South Africa,ZAF,North West,,49588
Uitenhage,-33.7596,25.39,South Africa,ZAF,Eastern Cape,,228912
Bhisho,-32.87,27.39,South Africa,ZAF,Eastern Cape,admin,160997
Knysna,-34.0329,23.0333,South Africa,ZAF,Western Cape,,63106
Queenstown,-31.8996,26.88,South Africa,ZAF,Eastern Cape,,105309
Cradock,-32.1995,25.61,South Africa,ZAF,Eastern Cape,,32898
Bredasdorp,-34.5295,20.03,South Africa,ZAF,Western Cape,,14936
Swellendam,-34.0196,20.43,South Africa,ZAF,Western Cape,,13674
Ladysmith,-28.5495,29.78,South Africa,ZAF,KwaZulu-Natal,,47375
George,-33.95,22.45,South Africa,ZAF,Western Cape,,174582
Grahamstown,-33.2996,26.52,South Africa,ZAF,Eastern Cape,,91548
Mmabatho,-25.83,25.61,South Africa,ZAF,North West,,104428
Mahikeng,-25.8652,25.6442,South Africa,ZAF,North West,admin,0
Bloemfontein,-29.12,26.2299,South Africa,ZAF,Free State,primary,463064
Cape Town,-33.92,18.435,South Africa,ZAF,Western Cape,primary,3215000
Zambezi,-13.54,23.1099,Zambia,ZMB,North-Western,,7074
Solwezi,-12.1796,26.4,Zambia,ZMB,North-Western,admin,65000
Lusaka,-15.4166,28.2833,Zambia,ZMB,Lusaka,primary,1328000
Kaoma,-14.7796,24.8,Zambia,ZMB,Western,,14212
Chipata,-13.6296,32.64,Zambia,ZMB,Eastern,admin,85963
Senanga,-16.1196,23.27,Zambia,ZMB,Western,,10005
Sesheke,-17.4695,24.3,Zambia,ZMB,Western,,20149
Chililabombwe,-12.3696,27.82,Zambia,ZMB,Copperbelt,,82068
Chingola,-12.5396,27.85,Zambia,ZMB,Copperbelt,,182015
Kasempa,-13.4596,25.82,Zambia,ZMB,North-Western,,5622
Kitwe,-12.81,28.22,Zambia,ZMB,Copperbelt,,404901
Mufulira,-12.55,28.26,Zambia,ZMB,Copperbelt,,153624
Nchelenge,-9.3496,28.73,Zambia,ZMB,Luapula,,23693
Mazabuka,-15.86,27.76,Zambia,ZMB,Southern,,64006
Lukulu,-14.3896,23.24,Zambia,ZMB,Western,,3349
Kafue,-15.78,28.18,Zambia,ZMB,Lusaka,,47554
Lundazi,-12.2895,33.17,Zambia,ZMB,Eastern,,11635
Mansa,-11.2,28.89,Zambia,ZMB,Luapula,admin,42277
Mwinilunga,-11.7396,24.44,Zambia,ZMB,North-Western,,13798
Mumbwa,-14.9796,27.07,Zambia,ZMB,Central,,19086
Kalabo,-14.9896,22.68,Zambia,ZMB,Western,,7731
Nyimba,-14.5495,30.81,Zambia,ZMB,Eastern,,1336
Kapiri Mposhi,-13.9696,28.66,Zambia,ZMB,Central,,37942
Kabwe,-14.44,28.45,Zambia,ZMB,Central,admin,188979
Ndola,-12.9999,28.65,Zambia,ZMB,Copperbelt,admin,396339
Kasama,-10.1996,31.1799,Zambia,ZMB,Northern,admin,200000
Mbala,-8.84,31.37,Zambia,ZMB,Northern,,20570
Kawambwa,-9.7795,29.08,Zambia,ZMB,Luapula,,20589
Luanshya,-13.1333,28.4,Zambia,ZMB,Copperbelt,,151993
Mongu,-15.2796,23.12,Zambia,ZMB,Western,admin,52534
Mpika,-11.83,31.46,Zambia,ZMB,Muchinga,,28445
Chinsali,-10.5496,32.06,Zambia,ZMB,Muchinga,admin,14015
Livingstone,-17.86,25.86,Zambia,ZMB,Southern,,165480
Choma,-16.8095,26.97,Zambia,ZMB,Southern,admin,46746
Plumtree,-20.4795,27.82,Zimbabwe,ZWE,,,2148
Kariba,-16.5296,28.8,Zimbabwe,ZWE,,,25531
Hwange,-18.37,26.5,Zimbabwe,ZWE,,,33989
Chiredzi,-21.0496,31.66,Zimbabwe,ZWE,,,28205
Mazowe,-17.5196,30.97,Zimbabwe,ZWE,Mashonaland Central,,9966
Zvishavane,-20.3296,30.05,Zimbabwe,ZWE,Masvingo,,35896
Shamva,-17.3196,31.57,Zimbabwe,ZWE,Mashonaland Central,,10317
Harare,-17.8178,31.0447,Zimbabwe,ZWE,Harare,primary,1572000
Kwekwe,-18.9296,29.8,Zimbabwe,ZWE,Midlands,,99149
Kadoma,-18.33,29.9099,Zimbabwe,ZWE,Mashonaland West,,79174
Gwanda,-20.9396,29.01,Zimbabwe,ZWE,Matabeleland South,,14450
Chinhoyi,-17.3596,30.18,Zimbabwe,ZWE,,,61739
Beitbridge,-22.2096,29.99,Zimbabwe,ZWE,,,26459
Mutare,-18.97,32.65,Zimbabwe,ZWE,Manicaland,,249365
Gweru,-19.45,29.82,Zimbabwe,ZWE,,,183358
Karoi,-16.8196,29.68,Zimbabwe,ZWE,Mashonaland West,,25030
Masvingo,-20.0596,30.82,Zimbabwe,ZWE,Masvingo,,76311
Bulawayo,-20.17,28.58,Zimbabwe,ZWE,Bulawayo,,699385
Victoria Falls,-17.9296,25.84,Zimbabwe,ZWE,Matabeleland North,,35761
Chitungwiza,-18,31.1,Zimbabwe,ZWE,Harare,,340360
Maqat,47.6482,53.3265,Kazakhstan,KAZ,Atyraū,,14082
Zhangaozen,43.3004,52.8,Kazakhstan,KAZ,Mangghystaū,,8895
Taraz,42.9,71.365,Kazakhstan,KAZ,Zhambyl,admin,358153
Shymkent,42.32,69.595,Kazakhstan,KAZ,Ongtüstik Qazaqstan,admin,465392
Oral,51.2711,51.335,Kazakhstan,KAZ,Batys Qazaqstan,admin,209788
Balqash,46.8532,74.9502,Kazakhstan,KAZ,Qaraghandy,,81364
Zaysan,47.4752,84.8598,Kazakhstan,KAZ,Shyghys Qazaqstan,,17600
Oytal,42.9153,73.2549,Kazakhstan,KAZ,Zhambyl,,22673
Zholymbet,51.7502,71.7099,Kazakhstan,KAZ,Aqmola,,6876
Serebryansk,49.6999,83.4249,Kazakhstan,KAZ,Shyghys Qazaqstan,,701
Chapaev,50.1915,51.1449,Kazakhstan,KAZ,Batys Qazaqstan,,6000
Ridder,50.3554,83.5149,Kazakhstan,KAZ,Shyghys Qazaqstan,,56756
Zhaltyr,51.6324,69.8328,Kazakhstan,KAZ,Aqmola,,694
Atbasar,51.8219,68.3477,Kazakhstan,KAZ,Aqmola,,35819
Aqsay,51.1714,53.0349,Kazakhstan,KAZ,Batys Qazaqstan,,34799
Shemonaikha,50.6316,81.905,Kazakhstan,KAZ,Shyghys Qazaqstan,,27176
Atasu,48.6903,71.6499,Kazakhstan,KAZ,Qaraghandy,,19616
Rudny,52.9527,63.13,Kazakhstan,KAZ,Qostanay,,124000
Makhambet,47.6714,51.5798,Kazakhstan,KAZ,Atyraū,,8905
Fort Shevchenko,44.5171,50.2666,Kazakhstan,KAZ,Mangghystaū,,5213
Qusmuryn,52.458,64.6,Kazakhstan,KAZ,Qostanay,,8049
Oktyabrsk,49.4731,57.4449,Kazakhstan,KAZ,Aqtöbe,,28196
Khromtau,50.2699,58.45,Kazakhstan,KAZ,Aqtöbe,,23715
Algha,49.9032,57.335,Kazakhstan,KAZ,Aqtöbe,,28267
Embi,48.8268,58.1442,Kazakhstan,KAZ,Aqtöbe,,18760
Ushtobe,45.2653,77.97,Kazakhstan,KAZ,Almaty,,20492
Burylbaytal,44.9387,74.0303,Kazakhstan,KAZ,Zhambyl,,100
Zhanibek,49.4276,46.8772,Kazakhstan,KAZ,Batys Qazaqstan,,8212
Esil,51.957,66.3775,Kazakhstan,KAZ,Aqmola,,13504
Derzhavinsk,51.1021,66.3075,Kazakhstan,KAZ,Aqmola,,15848
Saryshaghan,46.1195,73.6191,Kazakhstan,KAZ,Qaraghandy,,4365
Turgay,49.626,63.499,Kazakhstan,KAZ,Qostanay,,5277
Sarqan,45.4203,79.9149,Kazakhstan,KAZ,Almaty,,76919
Arqalyq,50.2418,66.8976,Kazakhstan,KAZ,Qostanay,,55521
Shalqar,47.8363,59.6141,Kazakhstan,KAZ,Aqtöbe,,27256
Shieli,44.167,66.75,Kazakhstan,KAZ,Qyzylorda,,29832
Bayghanin,48.6917,55.874,Kazakhstan,KAZ,Aqtöbe,,7657
Zhezqazghan,47.78,67.77,Kazakhstan,KAZ,Qaraghandy,,104357
Mangyshlak,43.6905,51.1417,Kazakhstan,KAZ,Mangghystaū,,147443
Zhosaly,45.4877,64.078,Kazakhstan,KAZ,Qyzylorda,,20065
Beyneu,45.1834,55.1,Kazakhstan,KAZ,Mangghystaū,,32452
Qazaly,45.7628,62.1075,Kazakhstan,KAZ,Qyzylorda,,6582
Aral,46.8,61.6666,Kazakhstan,KAZ,Qyzylorda,,33017
Ayakoz,47.9647,80.4297,Kazakhstan,KAZ,Shyghys Qazaqstan,,45861
Urzhar,47.1002,81.6048,Kazakhstan,KAZ,Shyghys Qazaqstan,,14826
Qapshaghay,43.8844,77.0687,Kazakhstan,KAZ,Almaty,,42167
Esik,43.3691,77.4438,Kazakhstan,KAZ,Almaty,,35319
Turkistan,43.3016,68.2549,Kazakhstan,KAZ,Ongtüstik Qazaqstan,,97360
Qaratau,43.1854,70.46,Kazakhstan,KAZ,Zhambyl,,37881
Sharbaqty,52.4999,78.1499,Kazakhstan,KAZ,Pavlodar,,107
Oostanay,53.2209,63.6283,Kazakhstan,KAZ,Qostanay,admin,236901
Kachiry,53.0804,76.09,Kazakhstan,KAZ,Pavlodar,,8931
Kishkenekol,53.6368,72.3414,Kazakhstan,KAZ,Soltüstik Qazaqstan,,6779
Bulaevo,54.9053,70.44,Kazakhstan,KAZ,Soltüstik Qazaqstan,,9886
Shonzhy,43.5421,79.4703,Kazakhstan,KAZ,Almaty,,3902
Qyzylorda,44.8,65.465,Kazakhstan,KAZ,Qyzylorda,admin,300000
Qaraghandy,49.885,73.115,Kazakhstan,KAZ,Qaraghandy,admin,451800
Ertis,53.3453,75.4499,Kazakhstan,KAZ,Pavlodar,,9216
Tayynsha,53.8481,69.7638,Kazakhstan,KAZ,Soltüstik Qazaqstan,,13148
Qulan,42.9204,72.705,Kazakhstan,KAZ,Zhambyl,,13128
Shu,43.5953,73.7448,Kazakhstan,KAZ,Zhambyl,,42439
Kentau,43.5165,68.5199,Kazakhstan,KAZ,Ongtüstik Qazaqstan,,57408
Oskemen,49.99,82.6149,Kazakhstan,KAZ,Shyghys Qazaqstan,admin,319067
Aqtau,43.6232,51.2365,Kazakhstan,KAZ,Mangghystaū,admin,4479
Taldyqorghan,45,78.4,Kazakhstan,KAZ,Almaty,admin,88380
Astana,51.1811,71.4278,Kazakhstan,KAZ,Astana,primary,345604
Aqtobe,50.28,57.17,Kazakhstan,KAZ,Aqtöbe,admin,262457
Kokshetau,53.3,69.42,Kazakhstan,KAZ,Aqmola,admin,128873
Petropavlovsk,54.88,69.22,Kazakhstan,KAZ,Soltüstik Qazaqstan,admin,228238
Pavlodar,52.3,76.95,Kazakhstan,KAZ,Pavlodar,admin,329002
Otar,43.5346,75.2139,Kazakhstan,KAZ,Zhambyl,,11238
Almaty,43.325,76.915,Kazakhstan,KAZ,Almaty,admin,1209000
Bestobe,52.4997,73.0997,Kazakhstan,KAZ,Aqmola,,7189
Arys,42.4369,68.8048,Kazakhstan,KAZ,Ongtüstik Qazaqstan,,42648
Lenger,42.1899,69.8799,Kazakhstan,KAZ,Ongtüstik Qazaqstan,,23058
Aqsu,52.4502,71.9597,Kazakhstan,KAZ,Aqmola,,8543
Temirtau,50.065,72.965,Kazakhstan,KAZ,Qaraghandy,,170600
Makinsk,52.6404,70.41,Kazakhstan,KAZ,Aqmola,,23020
Osakarovka,50.5799,72.5699,Kazakhstan,KAZ,Qaraghandy,,7305
Qarqaraly,49.4249,75.4649,Kazakhstan,KAZ,Qaraghandy,,8195
Ekibastuz,51.73,75.3199,Kazakhstan,KAZ,Pavlodar,,127868
Zyryanovsk,49.7453,84.2548,Kazakhstan,KAZ,Shyghys Qazaqstan,,49658
Komsomolets,53.7506,62.0502,Kazakhstan,KAZ,Qostanay,,9838
Baykonur,45.6914,63.2413,Kazakhstan,KAZ,Qyzylorda,,36175
Erymentau,51.6303,73.1049,Kazakhstan,KAZ,Aqmola,,25141
Qarazhal,48.0253,70.7999,Kazakhstan,KAZ,Qaraghandy,,22170
Tobol,52.698,62.5749,Kazakhstan,KAZ,Qostanay,,7155
Shar,49.6003,81.0549,Kazakhstan,KAZ,Shyghys Qazaqstan,,9087
Semey,50.435,80.275,Kazakhstan,KAZ,Shyghys Qazaqstan,,311353
Boralday,43.3341,76.8288,Kazakhstan,KAZ,Almaty,,20996
Zhetiqara,52.193,61.2399,Kazakhstan,KAZ,Qostanay,,46740
Aqadyr,48.2749,72.8599,Kazakhstan,KAZ,Qaraghandy,,9710
Zharkent,44.1616,79.9801,Kazakhstan,KAZ,Almaty,,36496
Qulsary,46.9833,54.0165,Kazakhstan,KAZ,Atyraū,,37103
Balyqshy,47.0666,51.8666,Kazakhstan,KAZ,Atyraū,,31624
Atyrau,47.1127,51.92,Kazakhstan,KAZ,Atyraū,admin,182753
Xiangkhoang,19.3337,103.3666,Laos,LAO,Xiangkhouang,,5189
Muang Phonsavan,19.45,103.2167,Laos,LAO,Xiangkhouang,admin,0
Vientiane,17.9667,102.6,Laos,LAO,Viangchan,primary,754000
Ban Houayxay,20.2775,100.4128,Laos,LAO,Bokèo,admin,6347
Muang Phon-Hong,18.4957,102.4142,Laos,LAO,Viangchan,admin,0
Louang Namtha,20.95,101.4167,Laos,LAO,Louangnamtha,admin,3225
Phongsali,21.6833,102.1,Laos,LAO,Phôngsali,admin,6000
Thakhek,17.4112,104.8361,Laos,LAO,Khammouan,admin,76928
Muang Pakxan,18.3826,103.6586,Laos,LAO,Bolikhamxai,admin,0
Louangphrabang,19.8845,102.1416,Laos,LAO,Louangphabang,admin,107142
Xaignabouri,19.2505,101.7501,Laos,LAO,Xaignabouli,admin,16200
Savannakhet,16.5376,104.773,Laos,LAO,Savannakhét,admin,84898
Lamam,15.4171,106.6946,Laos,LAO,Xékong,admin,0
Pakxe,15.1221,105.8183,Laos,LAO,Champasak,admin,102775
Attapu,14.808,106.839,Laos,LAO,Attapu,admin,4297
Xam Nua,20.4167,104.0333,Laos,LAO,Houaphan,admin,38992
Muang Xai,20.6923,101.9847,Laos,LAO,Oudômxai,admin,0
Saravan,15.716,106.427,Laos,LAO,Salavan,,5521
Champasak,14.8833,105.8667,Laos,LAO,Champasak,,12994
Beirut,33.872,35.5097,Lebanon,LBN,Beyrouth,primary,1846000
Zahle,33.8501,35.9042,Lebanon,LBN,Béqaa,admin,78145
Baalbek,34.0058,36.2181,Lebanon,LBN,Baalbek-Hermel,admin,0
B'abda,33.8333,35.5333,Lebanon,LBN,Mont-Liban,admin,9000
Halba,34.5428,36.0797,Lebanon,LBN,Aakkâr,admin,0
Saida,33.563,35.3688,Lebanon,LBN,Liban-Sud,admin,173894
Nabatiye et Tahta,33.3833,35.45,Lebanon,LBN,Nabatîyé,admin,80000
Trablous,34.42,35.87,Lebanon,LBN,Liban-Nord,admin,530000
Castries,14.002,-61,Saint Lucia,LCA,Castries,primary,37963
Gamprin,47.2197,9.5113,Liechtenstein,LIE,Gamprin,admin,0
Triesenberg,47.1182,9.5444,Liechtenstein,LIE,Triesenberg,admin,0
Schaan,47.1661,9.5096,Liechtenstein,LIE,Schaan,admin,0
Ruggell,47.2408,9.5247,Liechtenstein,LIE,Ruggell,admin,0
Mauren,47.2205,9.5426,Liechtenstein,LIE,Mauren,admin,0
Eschen,47.2109,9.5216,Liechtenstein,LIE,Eschen,admin,0
Triesen,47.1101,9.524,Liechtenstein,LIE,Triesen,admin,0
Balzers,47.0667,9.5025,Liechtenstein,LIE,Balzers,admin,0
Vaduz,47.1337,9.5167,Liechtenstein,LIE,Vaduz,primary,36281
Planken,47.1844,9.5436,Liechtenstein,LIE,Planken,admin,0
Schellenberg,47.2325,9.5463,Liechtenstein,LIE,Schellenberg,admin,0
Colombo,6.932,79.8578,Sri Lanka,LKA,Western,primary,217000
Ratnapura,6.693,80.386,Sri Lanka,LKA,Sabaragamuwa,,47832
Matara,5.949,80.5428,Sri Lanka,LKA,Southern,,68244
Sri Jawewardenepura Kotte,6.9,79.95,Sri Lanka,LKA,Western,primary,115826
Moratuwa,6.7804,79.88,Sri Lanka,LKA,Western,,200000
Anuradhapura,8.35,80.3833,Sri Lanka,LKA,North Central,,118302
Galle,6.03,80.24,Sri Lanka,LKA,Southern,,99478
Puttalan,8.033,79.826,Sri Lanka,LKA,North Western,,45661
Kandy,7.28,80.67,Sri Lanka,LKA,Central,,111701
Badulla,6.9837,81.0499,Sri Lanka,LKA,Uva,,47587
Trincomalee,8.569,81.233,Sri Lanka,LKA,Eastern,,108420
Kilinochchi,9.4004,80.3999,Sri Lanka,LKA,Northern,,103717
Batticaloa,7.717,81.7,Sri Lanka,LKA,Eastern,,129222
Jaffna,9.675,80.005,Sri Lanka,LKA,Northern,,250000
Bopolu,7.0667,-10.4875,Liberia,LBR,Gbarpolu,admin,0
Voinjama,8.4167,-9.75,Liberia,LBR,Lofa,admin,26594
Robertsport,6.7533,-11.3686,Liberia,LBR,Grand Cape Mount,admin,11969
Buchanan,5.9161,-10.0525,Liberia,LBR,Grand Bassa,,48315
Monrovia,6.3106,-10.8048,Liberia,LBR,Montserrado,primary,1041000
Tubmanburg,6.8706,-10.8211,Liberia,LBR,Bomi,admin,0
Buchanan,5.8811,-10.0447,Liberia,LBR,Grand Bassa,admin,0
Zwedru,6.0704,-8.13,Liberia,LBR,Grand Gedeh,admin,25678
Barclayville,4.8,-8.1667,Liberia,LBR,Grand Kru,admin,2733
Rivercess,5.465,-9.578,Liberia,LBR,River Cess,admin,2578
Fish Town,5.1974,-7.8758,Liberia,LBR,River Gee,admin,0
Gbarnga,7.0104,-9.49,Liberia,LBR,Bong,admin,45835
Kakata,6.526,-10.349,Liberia,LBR,Margibi,admin,33945
Sanniquellie,7.371,-8.685,Liberia,LBR,Nimba,admin,11415
Greenville,5.0111,-9.0388,Liberia,LBR,Sinoe,admin,10374
Bensonville,6.4333,-10.6,Liberia,LBR,Montserrado,admin,4089
Harper,4.3754,-7.717,Liberia,LBR,Maryland,admin,32661
Maseru,-29.3167,27.4833,Lesotho,LSO,Maseru,primary,361324
Mokhotlong,-29.291,29.078,Lesotho,LSO,Mokhotlong,admin,8809
Thaba-Tseka,-29.522,28.6084,Lesotho,LSO,Thaba-Tseka,admin,0
Moyeni,-30.411,27.716,Lesotho,LSO,Quthing,admin,24130
Qacha's Nek,-30.1154,28.6894,Lesotho,LSO,Qacha’s Nek,admin,0
Mafetang,-29.8166,27.25,Lesotho,LSO,Mafeteng,admin,57059
Hlotse,-28.878,28.056,Lesotho,LSO,Leribe,admin,47675
Teyateyaneng,-29.153,27.753,Lesotho,LSO,Berea,admin,5115
Mohales Hoek,-30.159,27.48,Lesotho,LSO,Mohale’s Hoek,admin,24992
Butha-Buthe,-28.75,28.25,Lesotho,LSO,Butha-Buthe,admin,16330
Klaipeda,55.7204,21.1199,Lithuania,LTU,Klaipėdos Miestas,admin,192307
Palanga,55.9203,21.071,Lithuania,LTU,Palangos Miestas,admin,0
Nida,55.3086,20.9965,Lithuania,LTU,Neringa,admin,0
Kretinga,55.8888,21.2445,Lithuania,LTU,Kretinga,admin,0
Taurage,55.2522,22.2897,Lithuania,LTU,Tauragė,admin,0
Silute,55.3453,21.4733,Lithuania,LTU,Šilutė,admin,0
Rietavas,55.7271,21.9234,Lithuania,LTU,Rietavo,admin,0
Plunge,55.9077,21.8456,Lithuania,LTU,Plungė,admin,0
Silale,55.4898,22.1869,Lithuania,LTU,Šilalė,admin,0
Visaginas,55.5968,26.4398,Lithuania,LTU,Visaginas,admin,0
Zarasai,55.7322,26.2512,Lithuania,LTU,Zarasai,admin,0
Ignalina,55.3406,26.1605,Lithuania,LTU,Ignalina,admin,0
Utena,55.4976,25.5992,Lithuania,LTU,Utena,admin,0
Svencionys,55.133,26.1595,Lithuania,LTU,Švenčionys,admin,0
Rokiskis,55.9587,25.5947,Lithuania,LTU,Rokiškis,admin,0
Moletai,55.2247,25.4169,Lithuania,LTU,Molėtai,admin,0
Salcininkai,54.3086,25.3868,Lithuania,LTU,Šalčininkai,admin,0
Vilnius,54.6834,25.3166,Lithuania,LTU,Vilniaus Miestas,primary,542366
Kupiskis,55.8401,24.9803,Lithuania,LTU,Kupiškis,admin,0
Trakai,54.6399,24.936,Lithuania,LTU,Trakai,admin,0
Birzai,56.1986,24.7521,Lithuania,LTU,Biržai,admin,0
Anyksciai,55.5246,25.1066,Lithuania,LTU,Anykščiai,admin,0
Telsiai,55.9831,22.2343,Lithuania,LTU,Telšiai,admin,0
Kelme,55.6301,22.9349,Lithuania,LTU,Kelmė,admin,0
Marijampole,54.5599,23.3541,Lithuania,LTU,Marijampolė,admin,0
Lazdijai,54.2333,23.5147,Lithuania,LTU,Lazdijai,admin,0
Sakiai,54.9534,23.0478,Lithuania,LTU,Šakiai,admin,0
Radviliskis,55.8111,23.5411,Lithuania,LTU,Radviliškis,admin,0
Siauliai,55.9386,23.325,Lithuania,LTU,Šiaulių Miestas,admin,133528
Birstonas,54.6048,24.0311,Lithuania,LTU,Birštono,admin,0
Druskininkai,54.0157,23.987,Lithuania,LTU,Druskininkai,admin,0
Kedainiai,55.2878,23.9727,Lithuania,LTU,Kėdainiai,admin,0
Alytus,54.3964,24.0414,Lithuania,LTU,Alytaus Miestas,admin,0
Prienai,54.636,23.9458,Lithuania,LTU,Prienai,admin,0
Elektrenai,54.7863,24.6626,Lithuania,LTU,Elektrénai,admin,0
Kaunas,54.9504,23.88,Lithuania,LTU,Kauno Miestas,admin,374643
Jonava,55.0801,24.2754,Lithuania,LTU,Jonava,admin,0
Kaisiadorys,54.8653,24.4682,Lithuania,LTU,Kaišiadorys,admin,0
Panevezys,55.74,24.37,Lithuania,LTU,Panevėžio Miestas,admin,127405
Joniskis,56.2394,23.6154,Lithuania,LTU,Joniškis,admin,0
Kazlu Ruda,54.7497,23.495,Lithuania,LTU,Kazlų Rūdos,admin,0
Vilkaviskis,54.648,23.0305,Lithuania,LTU,Vilkaviškis,admin,0
Pasvalys,56.0625,24.3997,Lithuania,LTU,Pasvalys,admin,0
Pakruojis,55.9789,23.8551,Lithuania,LTU,Pakruojis,admin,0
Raseiniai,55.3797,23.1239,Lithuania,LTU,Raseiniai,admin,0
Pagegiai,55.1379,21.9138,Lithuania,LTU,Pagégiai,admin,0
Jurbarkas,55.0756,22.7642,Lithuania,LTU,Jurbarkas,admin,0
Kalvarija,54.4172,23.2283,Lithuania,LTU,Kalvarijos,admin,0
Sirvintos,55.044,24.9545,Lithuania,LTU,Širvintos,admin,0
Skuodas,56.2706,21.5321,Lithuania,LTU,Skuodas,admin,0
Mazeikiai,56.3122,22.3265,Lithuania,LTU,Mažeikiai,admin,0
Akmene,56.25,22.75,Lithuania,LTU,Akmenė,admin,0
Ukmerge,55.2494,24.7636,Lithuania,LTU,Ukmergė,admin,0
Varena,54.2155,24.5754,Lithuania,LTU,Varėna,admin,0
Capellen,49.645,5.9908,Luxembourg,LUX,Capellen,admin,0
Esch-sur-Alzette,49.4958,5.9806,Luxembourg,LUX,Esch-sur-Alzette,admin,0
Remich,49.545,6.3669,Luxembourg,LUX,Remich,admin,0
Echternach,49.8056,6.4222,Luxembourg,LUX,Echternach,admin,0
Mersch,49.7489,6.1061,Luxembourg,LUX,Mersch,admin,0
Redange-sur-Attert,49.7656,5.8908,Luxembourg,LUX,Redange,admin,0
Vianden,49.935,6.2089,Luxembourg,LUX,Vianden,admin,0
Wiltz,49.9689,5.9319,Luxembourg,LUX,Wiltz,admin,0
Clervaux,50.0547,6.0314,Luxembourg,LUX,Clervaux,admin,0
Diekirch,49.8833,6.1667,Luxembourg,LUX,Diekirch,admin,6242
Grevenmacher,49.7,6.3333,Luxembourg,LUX,Grevenmacher,admin,3958
Luxembourg,49.6117,6.13,Luxembourg,LUX,Luxembourg,primary,107260
Skrunda,56.6833,22.0167,Latvia,LVA,Skrundas Novads,admin,0
Daugavpils,55.88,26.51,Latvia,LVA,Daugavpils Novads,admin,111564
Jekabpils,56.4833,25.85,Latvia,LVA,Jēkabpils Novads,admin,0
Aglona,56.1333,27.0167,Latvia,LVA,Aglonas Novads,admin,0
Lielvarde,56.7225,24.805,Latvia,LVA,Lielvārdes Novads,admin,0
Saldus,56.6667,22.5,Latvia,LVA,Saldus Novads,admin,0
Ozolnieki,56.6864,23.7878,Latvia,LVA,Ozolnieku Novads,admin,0
Broceni,56.7,22.5333,Latvia,LVA,Brocēnu Novads,admin,0
Jelgava,56.6527,23.7128,Latvia,LVA,Jelgavas Novads,admin,67207
Pilsrundale,56.4167,24,Latvia,LVA,Rundāles Novads,admin,0
Dobele,56.625,23.2786,Latvia,LVA,Dobeles Novads,admin,0
Iecava,56.5986,24.2022,Latvia,LVA,Iecavas Novads,admin,0
Jaunpils,56.7325,23.0136,Latvia,LVA,Jaunpils Novads,admin,0
Auce,56.4667,22.8833,Latvia,LVA,Auces Novads,admin,0
Tukums,56.9669,23.1553,Latvia,LVA,Tukuma Novads,admin,0
Tervete,56.4781,23.3867,Latvia,LVA,Tērvetes Novads,admin,0
Salacgriva,57.7531,24.359,Latvia,LVA,Salacgrīvas Novads,admin,0
Ventspils,57.3899,21.5606,Latvia,LVA,Ventspils,admin,42884
Dundaga,57.505,22.3504,Latvia,LVA,Dundagas Novads,admin,0
Jaunjelgava,56.6132,25.0832,Latvia,LVA,Jaunjelgavas Novads,admin,0
Nereta,56.2044,25.3077,Latvia,LVA,Neretas Novads,admin,0
Alsunga,56.9801,21.564,Latvia,LVA,Alsungas Novads,admin,0
Kuldiga,56.969,21.968,Latvia,LVA,Kuldīgas Novads,admin,0
Pavilosta,56.8898,21.1817,Latvia,LVA,Pāvilostas Novads,admin,0
Pinki,56.9419,23.9137,Latvia,LVA,Babītes Novads,admin,0
Adazi,57.0705,24.3371,Latvia,LVA,Ādažu Novads,admin,0
Kandava,57.0389,22.7724,Latvia,LVA,Kandavas Novads,admin,0
Roja,57.5015,22.8088,Latvia,LVA,Rojas Novads,admin,0
Carnikava,57.1293,24.2842,Latvia,LVA,Carnikavas Novads,admin,0
Garkalne,57.0449,24.4195,Latvia,LVA,Garkalnes Novads,admin,0
Saulkrasti,57.2599,24.4189,Latvia,LVA,Saulkrastu Novads,admin,0
Smarde,56.9533,23.3387,Latvia,LVA,Engures Novads,admin,0
Mersrags,57.3364,23.1235,Latvia,LVA,Mērsraga Novads,admin,0
Talsi,57.2465,22.5876,Latvia,LVA,Talsu Novads,admin,0
Jurmala,56.9567,23.7233,Latvia,LVA,Jūrmala,admin,0
Marupe,56.9032,24.0467,Latvia,LVA,Mārupes Novads,admin,0
Ulbroka,56.9363,24.3039,Latvia,LVA,Stopiņu Novads,admin,0
Zilupe,56.386,28.1218,Latvia,LVA,Zilupes Novads,admin,0
Ludza,56.5396,27.7189,Latvia,LVA,Ludzas Novads,admin,0
Dagda,56.0961,27.5328,Latvia,LVA,Dagdas Novads,admin,0
Baltinava,56.9439,27.644,Latvia,LVA,Baltinavas Novads,admin,0
Cibla,56.5498,27.8837,Latvia,LVA,Ciblas Novads,admin,0
Karsava,56.7874,27.6732,Latvia,LVA,Kārsavas Novads,admin,0
Riga,56.95,24.1,Latvia,LVA,Rīga,primary,742572
Kraslava,55.8969,27.172,Latvia,LVA,Krāslavas Novads,admin,0
Limbazi,57.513,24.724,Latvia,LVA,Limbažu Novads,admin,0
Preili,56.294,26.7248,Latvia,LVA,Preiļu Novads,admin,0
Vecvarkava,56.1984,26.5081,Latvia,LVA,Vārkavas Novads,admin,0
Ilukste,55.9779,26.2978,Latvia,LVA,Ilūkstes Novads,admin,0
Nica,56.3456,21.0646,Latvia,LVA,Nīcas Novads,admin,0
Bauska,56.4079,24.1944,Latvia,LVA,Bauskas Novads,admin,0
Vilaka,57.1843,27.6719,Latvia,LVA,Viļakas Novads,admin,0
Livani,56.3567,26.1761,Latvia,LVA,Līvānu Novads,admin,0
Aluksne,57.4216,27.0466,Latvia,LVA,Alūksnes Novads,admin,0
Rezekne,56.5,27.3166,Latvia,LVA,Rēzekne,admin,38340
Rugaji,57.0033,27.1337,Latvia,LVA,Rugāju Novads,admin,0
Riebini,56.3403,26.7999,Latvia,LVA,Riebiņu Novads,admin,0
Vilani,56.5505,26.9298,Latvia,LVA,Viļānu Novads,admin,0
Varaklani,56.6091,26.7547,Latvia,LVA,Varakļānu Novads,admin,0
Ape,57.5394,26.694,Latvia,LVA,Apes Novads,admin,0
Madona,56.851,26.2184,Latvia,LVA,Madonas Novads,admin,0
Jaunpiebalga,57.1775,26.0284,Latvia,LVA,Jaunpiebalgas Novads,admin,0
Lubana,56.9043,26.7161,Latvia,LVA,Lubānas Novads,admin,0
Gulbene,57.1734,26.7527,Latvia,LVA,Gulbenes Novads,admin,0
Balvi,57.1287,27.27,Latvia,LVA,Balvu Novads,admin,0
Akniste,56.1615,25.7482,Latvia,LVA,Aknīstes Novads,admin,0
Viesite,56.3465,25.5581,Latvia,LVA,Viesītes Novads,admin,0
Cesvaine,56.9675,26.3076,Latvia,LVA,Cesvaines Novads,admin,0
Kegums,56.7455,24.725,Latvia,LVA,Ķeguma Novads,admin,0
Vecpiebalga,57.0618,25.8179,Latvia,LVA,Vecpiebalgas Novads,admin,0
Smiltene,57.4242,25.9017,Latvia,LVA,Smiltenes Novads,admin,0
Drabesi,57.2433,25.2803,Latvia,LVA,Amatas Novads,admin,0
Cesis,57.3091,25.2761,Latvia,LVA,Cēsu Novads,admin,0
Ergli,56.8988,25.6429,Latvia,LVA,Ērgļu Novads,admin,0
Valka,57.7767,26.0118,Latvia,LVA,Valkas Novads,admin,0
Grobina,56.5358,21.1747,Latvia,LVA,Grobiņas Novads,admin,0
Strenci,57.6269,25.6919,Latvia,LVA,Strenču Novads,admin,0
Murmuiza,57.4731,25.4917,Latvia,LVA,Beverīnas Novads,admin,0
Mazsalaca,57.8619,25.0547,Latvia,LVA,Mazsalacas Novads,admin,0
Aloja,57.7672,24.8774,Latvia,LVA,Alojas Novads,admin,0
Burtnieki,57.6949,25.275,Latvia,LVA,Burtnieku Novads,admin,0
Koknese,56.6516,25.4364,Latvia,LVA,Kokneses Novads,admin,0
Aizkraukle,56.6029,25.2636,Latvia,LVA,Aizkraukles Novads,admin,0
Skriveri,56.6485,25.1195,Latvia,LVA,Skrīveru Novads,admin,0
Baldone,56.7445,24.4008,Latvia,LVA,Baldones Novads,admin,0
Vecumnieki,56.6061,24.5223,Latvia,LVA,Vecumnieku Novads,admin,0
Sala,56.5047,25.7618,Latvia,LVA,Salas Novads,admin,0
Plavinas,56.6177,25.7194,Latvia,LVA,Pļaviņu Novads,admin,0
Liepaga,56.51,21.01,Latvia,LVA,Liepāja,admin,85132
Rujiena,57.8961,25.3342,Latvia,LVA,Rūjienas Novads,admin,0
Naukseni,57.8842,25.458,Latvia,LVA,Naukšēnu Novads,admin,0
Liegi,56.5797,21.3338,Latvia,LVA,Durbes Novads,admin,0
Rauna,57.3337,25.6085,Latvia,LVA,Raunas Novads,admin,0
Aizpute,56.7211,21.6016,Latvia,LVA,Aizputes Novads,admin,0
Koceni,57.5198,25.3404,Latvia,LVA,Kocēnu Novads,admin,0
Valmiera,57.5387,25.4257,Latvia,LVA,Valmiera,admin,0
Sigulda,57.1538,24.8595,Latvia,LVA,Siguldas Novads,admin,0
Priekuli,57.3115,25.3571,Latvia,LVA,Priekuļu Novads,admin,0
Ogre,56.8113,24.6113,Latvia,LVA,Ogres Novads,admin,0
Ragana,57.1821,24.7056,Latvia,LVA,Krimuldas Novads,admin,0
Loja,57.1534,24.6433,Latvia,LVA,Sējas Novads,admin,0
Ropazi,56.9747,24.6329,Latvia,LVA,Ropažu Novads,admin,0
Priekule,56.4458,21.5939,Latvia,LVA,Priekules Novads,admin,0
Rucava,56.164,21.1627,Latvia,LVA,Rucavas Novads,admin,0
Salaspils,56.861,24.3498,Latvia,LVA,Salaspils Novads,admin,0
Ikskile,56.834,24.4968,Latvia,LVA,Ikšķiles Novads,admin,0
Incukalns,57.0987,24.6863,Latvia,LVA,Inčukalna Novads,admin,0
Malpils,57.0101,24.9578,Latvia,LVA,Mālpils Novads,admin,0
Olaine,56.7947,23.9358,Latvia,LVA,Olaines Novads,admin,0
Kekava,56.8296,24.2318,Latvia,LVA,Ķekavas Novads,admin,0
Ligatne,57.2379,25.0436,Latvia,LVA,Līgatnes Novads,admin,0
Stalbe,57.3708,25.0324,Latvia,LVA,Pārgaujas Novads,admin,0
Vainode,56.4185,21.8541,Latvia,LVA,Vaiņodes Novads,admin,0
Tripoli,32.8925,13.18,Libya,LBY,Ţarābulus,primary,2189000
Gharyan,32.1704,13.02,Libya,LBY,Al Jabal al Gharbī,admin,146810
Surt,31.21,16.59,Libya,LBY,Surt,admin,128123
Marzuq,25.9044,13.8972,Libya,LBY,Murzuq,admin,55071
Sabha,27.0333,14.4333,Libya,LBY,Sabhā,admin,100249
Misratah,32.38,15.1,Libya,LBY,Mişrātah,admin,386120
Al `Aziziyah,32.5319,13.0175,Libya,LBY,Al Jafārah,admin,0
Zuwarah,32.9344,12.0791,Libya,LBY,An Nuqāţ al Khams,admin,180310
Nalut,31.8804,10.97,Libya,LBY,Nālūt,admin,66609
Hun,29.1167,15.9333,Libya,LBY,Al Jufrah,admin,18878
Darnah,32.7648,22.6391,Libya,LBY,Darnah,admin,127974
Al Bayda,32.7604,21.62,Libya,LBY,Al Jabal al Akhḑar,admin,1794
Az Zawiyah,32.7604,12.72,Libya,LBY,Az Zāwiyah,admin,200000
Tajarhi,24.3704,14.4708,Libya,LBY,,,1500
Al Jaghbub,29.7504,24.5166,Libya,LBY,,,1744
Awjilah,29.108,21.2869,Libya,LBY,,,6610
Al Khums,32.6604,14.26,Libya,LBY,Al Marqab,admin,201943
Ajdabiya,30.77,20.22,Libya,LBY,Al Wāḩāt,admin,143833
Al Kufrah,24.1667,23.2696,Libya,LBY,Al Kufrah,admin,0
Al Jawf,24.2,23.29,Libya,LBY,,,24132
As Sidr,30.6704,18.2666,Libya,LBY,,,50
Umm al Abid,27.517,15.0333,Libya,LBY,,,300
Banghazi,32.1167,20.0667,Libya,LBY,Banghāzī,admin,1180000
Dirj,30.1679,10.4567,Libya,LBY,Nālūt,,931
Mizdah,31.4337,12.9833,Libya,LBY,Al Jabal al Gharbī,,26107
Ghadamis,30.1333,9.5,Libya,LBY,Nālūt,,6623
Qaminis,31.6606,20.0155,Libya,LBY,Banghāzī,,5348
Awbari,26.5903,12.7751,Libya,LBY,Wādī al Ḩayāt,admin,0
Ghat,24.9647,10.1728,Libya,LBY,Ghāt,admin,24347
Bani Walid,31.7704,13.99,Libya,LBY,Mişrātah,,65392
Zillah,28.5504,17.5834,Libya,LBY,Al Jufrah,,10
Tmassah,26.3666,15.8,Libya,LBY,Murzuq,,500
Idri,27.4471,13.0517,Libya,LBY,Wādī ash Shāţi’,admin,0
El Agheila,30.257,19.2,Libya,LBY,Al Wāḩāt,,100
Birak,27.5333,14.2834,Libya,LBY,Wādī ash Shāţi’,,45421
Maradah,29.2337,19.2166,Libya,LBY,Al Wāḩāt,,2500
Shahhat,32.8281,21.8622,Libya,LBY,Al Jabal al Akhḑar,,45000
Al Marj,32.5005,20.83,Libya,LBY,Al Marj,admin,169540
Tubruq,32.08,23.96,Libya,LBY,Al Buţnān,admin,263527
Kenitra,34.2704,-6.58,Morocco,MAR,Rabat-Salé-Kénitra,,551786
Goulimine,28.98,-10.07,Morocco,MAR,Guelmim-Oued Noun,admin,115267
Fez,34.0546,-5.0004,Morocco,MAR,Fès-Meknès,admin,1002000
Casablanca,33.6,-7.6164,Morocco,MAR,Casablanca-Settat,admin,3181000
Agadir,30.44,-9.62,Morocco,MAR,Souss-Massa,admin,825467
Beni Mellal,32.3373,-6.3498,Morocco,MAR,Béni Mellal-Khénifra,admin,0
Tangier,35.7473,-5.8327,Morocco,MAR,Tanger-Tétouan-Al Hoceïma,admin,750060
Settat,33.0104,-7.62,Morocco,MAR,Casablanca-Settat,,161748
Oujda,34.69,-1.91,Morocco,MAR,Oriental,admin,409391
Meknes,33.9004,-5.56,Morocco,MAR,Fès-Meknès,,697628
Rabat,34.0253,-6.8361,Morocco,MAR,Rabat-Salé-Kénitra,primary,1705000
Marrakesh,31.63,-8,Morocco,MAR,Marrakech-Safi,admin,872000
El Jadida,33.2604,-8.51,Morocco,MAR,Casablanca-Settat,,180470
Er Rachidia,31.9404,-4.45,Morocco,MAR,Drâa-Tafilalet,,228489
Tan Tan,28.4304,-11.1,Morocco,MAR,Guelmim-Oued Noun,,64868
Taza,34.2204,-4.02,Morocco,MAR,Fès-Meknès,,199633
Larache,35.2004,-6.16,Morocco,MAR,Tanger-Tétouan-Al Hoceïma,,120082
Ksar El Kebir,35.0204,-5.91,Morocco,MAR,Tanger-Tétouan-Al Hoceïma,,306600
Safi,32.32,-9.24,Morocco,MAR,Marrakech-Safi,,353476
Tiznit,29.7104,-9.74,Morocco,MAR,Souss-Massa,,57705
Ouezzane,34.8103,-5.57,Morocco,MAR,Tanger-Tétouan-Al Hoceïma,,69658
Monaco,43.7396,7.4069,Monaco,MCO,,primary,36371
Leova,46.4823,28.253,Moldova,MDA,Leova,admin,0
Rezina,47.7493,28.9658,Moldova,MDA,Rezina,admin,0
Causeni,46.6367,29.4111,Moldova,MDA,Căuşeni,admin,0
Riscani,47.9479,27.5638,Moldova,MDA,Rîşcani,admin,0
Singerei,47.6363,28.143,Moldova,MDA,Sîngerei,admin,0
Falesti,47.5767,27.7126,Moldova,MDA,Făleşti,admin,0
Floresti,47.8914,28.2931,Moldova,MDA,Floreşti,admin,0
Soldanesti,47.8161,28.7972,Moldova,MDA,Şoldăneşti,admin,0
Stefan Voda,46.5129,29.6619,Moldova,MDA,Ştefan-Vodă,admin,0
Orhei,47.3849,28.8245,Moldova,MDA,Orhei,admin,0
Comrat,46.2946,28.6565,Moldova,MDA,Găgăuzia,admin,0
Cimislia,46.5268,28.7644,Moldova,MDA,Cimişlia,admin,0
Cantemir,46.2774,28.2027,Moldova,MDA,Cantemir,admin,0
Basarabeasca,46.3317,28.9636,Moldova,MDA,Basarabeasca,admin,0
Edinet,48.1721,27.3034,Moldova,MDA,Edineţ,admin,0
Ocnita,48.3827,27.4381,Moldova,MDA,Ocniţa,admin,0
Drochia,48.0355,27.8129,Moldova,MDA,Drochia,admin,0
Donduseni,48.2394,27.6056,Moldova,MDA,Donduşeni,admin,0
Briceni,48.3629,27.0779,Moldova,MDA,Briceni,admin,0
Ialoveni,46.9435,28.7823,Moldova,MDA,Ialoveni,admin,0
Balti,47.7591,27.9053,Moldova,MDA,Bălţi,admin,151355
Criuleni,47.2131,29.1593,Moldova,MDA,Criuleni,admin,0
Bender,46.8316,29.4777,Moldova,MDA,Bender,admin,0
Anenii Noi,46.8784,29.2348,Moldova,MDA,Anenii Noi,admin,0
Cahul,45.9079,28.1944,Moldova,MDA,Cahul,admin,63407
Chisinau,47.005,28.8577,Moldova,MDA,Chişinău,primary,688134
Straseni,47.1422,28.6077,Moldova,MDA,Străşeni,admin,0
Tiraspol,46.8531,29.64,Moldova,MDA,Stînga Nistrului,admin,157000
Telenesti,47.5011,28.3654,Moldova,MDA,Teleneşti,admin,0
Taraclia,45.9027,28.6682,Moldova,MDA,Taraclia,admin,0
Dubasari,47.2631,29.1608,Moldova,MDA,Stînga Nistrului,,23254
Cocieri,47.3087,29.1101,Moldova,MDA,Dubăsari,admin,0
Calarasi,47.2556,28.3099,Moldova,MDA,Călăraşi,admin,0
Glodeni,47.7751,27.5189,Moldova,MDA,Glodeni,admin,0
Hincesti,46.8305,28.5906,Moldova,MDA,Hînceşti,admin,0
Nisporeni,47.0816,28.1714,Moldova,MDA,Nisporeni,admin,0
Soroca,48.1566,28.2849,Moldova,MDA,Soroca,admin,0
Ungheni,47.2108,27.8005,Moldova,MDA,Ungheni,admin,0
Berane,42.8425,19.8733,Montenegro,MNE,Berane,admin,0
Plav,42.5969,19.9456,Montenegro,MNE,Plav,admin,0
Andrijevica,42.7339,19.7919,Montenegro,MNE,Andrijevica,admin,0
Petnjica,42.9089,19.9644,Montenegro,MNE,Petnjica,admin,0
Gusinje,42.5619,19.8339,Montenegro,MNE,Gusinje,admin,0
Kolasin,42.8242,19.5225,Montenegro,MNE,Kolašin,admin,0
Podgorica,42.466,19.2663,Montenegro,MNE,Podgorica,primary,145850
Bijelo Polje,43.0292,19.7456,Montenegro,MNE,Bijelo Polje,admin,0
Bar,42.0931,19.1003,Montenegro,MNE,Bar,admin,0
Budva,42.2864,18.84,Montenegro,MNE,Budva,admin,0
Cetinje,42.3922,18.9225,Montenegro,MNE,Cetinje,admin,0
Danilovgrad,42.5472,19.1053,Montenegro,MNE,Danilovgrad,admin,0
Herceg-Novi,42.4531,18.5375,Montenegro,MNE,Herceg Novi,admin,0
Kotor,42.4258,18.7719,Montenegro,MNE,Kotor,admin,0
Mojkovac,42.9639,19.5825,Montenegro,MNE,Mojkovac,admin,0
Niksic,42.775,18.9583,Montenegro,MNE,Nikšić,admin,0
Pluzine,43.1528,18.8394,Montenegro,MNE,Plužine,admin,0
Pljevlja,43.3522,19.3542,Montenegro,MNE,Pljevlja,admin,0
Rozaje,42.8439,20.1683,Montenegro,MNE,Rožaje,admin,0
Savnik,42.9564,19.0967,Montenegro,MNE,Šavnik,admin,0
Tivat,42.4364,18.6961,Montenegro,MNE,Tivat,admin,0
Ulcinj,41.9283,19.2064,Montenegro,MNE,Ulcinj,admin,0
Zabljak,43.1547,19.1219,Montenegro,MNE,Žabljak,admin,0
Marigot,18.0706,-63.0847,Saint Martin,MAF,,primary,0
Antananarivo,-18.9166,47.5166,Madagascar,MDG,Antananarivo,primary,1697000
Toamasina,-18.1818,49.405,Madagascar,MDG,Toamasina,admin,210226
Antalaha,-14.8833,50.2833,Madagascar,MDG,Antsiranana,,47224
Maroantsetra,-15.4333,49.7333,Madagascar,MDG,Toamasina,,38046
Mandritsara,-15.8328,48.8166,Madagascar,MDG,Mahajanga,,9705
Besalampy,-16.7495,44.4833,Madagascar,MDG,Mahajanga,,1022
Marovoay,-16.0995,46.6333,Madagascar,MDG,Mahajanga,,31253
Andoany,-13.4,48.2666,Madagascar,MDG,Antsiranana,,22680
Mahajanga,-15.67,46.345,Madagascar,MDG,Mahajanga,admin,154657
Ambanja,-13.6829,48.45,Madagascar,MDG,Antsiranana,,30621
Antsiranana,-12.2765,49.3115,Madagascar,MDG,Antsiranana,admin,82937
Miandrivazo,-19.5162,45.4666,Madagascar,MDG,Toliara,,20631
Mananjary,-21.2167,48.3333,Madagascar,MDG,Fianarantsoa,,27686
Morombe,-21.7391,43.3657,Madagascar,MDG,Toliara,,16727
Toliara,-23.3568,43.69,Madagascar,MDG,Toliara,admin,115319
Manja,-21.4329,44.3333,Madagascar,MDG,Toliara,,1536
Fianarantsoa,-21.4333,47.0833,Madagascar,MDG,Fianarantsoa,admin,184184
Androka,-25.0219,44.0749,Madagascar,MDG,Toliara,,174
Bekiy,-24.2162,45.3166,Madagascar,MDG,Toliara,,4286
Antsirabe,-19.85,47.0333,Madagascar,MDG,Antananarivo,minor,307921
Antsohihy,-14.8661,47.9834,Madagascar,MDG,Mahajanga,minor,21290
Maintirano,-18.0666,44.0167,Madagascar,MDG,Mahajanga,minor,5925
Ambatondrazaka,-17.8329,48.4167,Madagascar,MDG,Toamasina,minor,43134
Farafangana,-22.8166,47.8332,Madagascar,MDG,Fianarantsoa,minor,24764
Ihosy,-22.3996,46.1167,Madagascar,MDG,Fianarantsoa,minor,16990
Morondava,-20.2833,44.2833,Madagascar,MDG,Toliara,minor,36803
Tolanaro,-25.0268,46.99,Madagascar,MDG,Toliara,minor,16818
Sambava,-14.2662,50.1666,Madagascar,MDG,Antsiranana,minor,43465
Majuro,7.103,171.38,Marshall Islands,MHL,Majuro,primary,25400
Vevcani,41.2406,20.5933,Macedonia,MKD,Vevčani,admin,0
Kocani,41.9164,22.4128,Macedonia,MKD,Kočani,admin,0
Staro Nagoricane,42.1981,21.8286,Macedonia,MKD,Staro Nagoričane,admin,0
Radovis,41.6383,22.4647,Macedonia,MKD,Radoviš,admin,0
Sopiste,41.9547,21.4275,Macedonia,MKD,Sopište,admin,0
Petrovec,41.9389,21.615,Macedonia,MKD,Petrovec,admin,0
Bosilovo,41.4406,22.7278,Macedonia,MKD,Bosilovo,admin,0
Zrnovci,41.8542,22.4444,Macedonia,MKD,Zrnovci,admin,0
Gradsko,41.5775,21.9428,Macedonia,MKD,Gradsko,admin,0
Lipkovo,42.1564,21.5853,Macedonia,MKD,Lipkovo,admin,0
Lozovo,41.7839,21.9056,Macedonia,MKD,Lozovo,admin,0
Plasnica,41.4672,21.1231,Macedonia,MKD,Plasnica,admin,0
Aracinovo,42.0264,21.5619,Macedonia,MKD,Aračinovo,admin,0
Studenicani,41.9158,21.5306,Macedonia,MKD,Studeničani,admin,0
Resen,41.0893,21.0109,Macedonia,MKD,Resen,admin,0
Bogovinje,41.9236,20.9136,Macedonia,MKD,Bogovinje,admin,0
Vinica,41.8828,22.5092,Macedonia,MKD,Vinica,admin,0
Belcista,41.3028,20.8303,Macedonia,MKD,Debarca,admin,0
Mogila,41.1083,21.3786,Macedonia,MKD,Mogila,admin,0
Veles,41.7156,21.7756,Macedonia,MKD,Veles,admin,0
Kavadarci,41.4331,22.0119,Macedonia,MKD,Kavadarci,admin,0
Kumanovo,42.1322,21.7144,Macedonia,MKD,Kumanovo,admin,0
Ohrid,41.1172,20.8019,Macedonia,MKD,Ohrid,admin,0
Strumica,41.4375,22.6433,Macedonia,MKD,Strumica,admin,0
Makedonski Brod,41.5136,21.2153,Macedonia,MKD,Makedonski Brod,admin,0
Rostusa,41.61,20.6,Macedonia,MKD,Mavrovo i Rostuša,admin,0
Struga,41.178,20.6778,Macedonia,MKD,Struga,admin,0
Cucer-Sandevo,42.102,21.3846,Macedonia,MKD,Čučer-Sandevo,admin,0
Novo Selo,41.4149,22.8816,Macedonia,MKD,Novo Selo,admin,0
Zelenikovo,41.8841,21.5885,Macedonia,MKD,Zelenikovo,admin,0
Star Dojran,41.1865,22.7203,Macedonia,MKD,Dojran,admin,0
Skopje,42,21.4335,Macedonia,MKD,,primary,494087
Stip,41.7423,22.1979,Macedonia,MKD,Štip,admin,0
Makedonska Kamenica,42.0208,22.5876,Macedonia,MKD,Makedonska Kamenica,admin,0
Ilinden,41.9945,21.58,Macedonia,MKD,Ilinden,admin,0
Demir Hisar,41.221,21.203,Macedonia,MKD,Demir Hisar,admin,0
Zelino,41.9825,21.0624,Macedonia,MKD,Želino,admin,0
Prilep,41.3451,21.555,Macedonia,MKD,Prilep,admin,0
Bitola,41.0391,21.3395,Macedonia,MKD,Bitola,admin,86528
Krivogastani,41.3369,21.3311,Macedonia,MKD,Krivogaštani,admin,0
Krusevo,41.3694,21.2483,Macedonia,MKD,Kruševo,admin,0
Vasilevo,41.4741,22.643,Macedonia,MKD,Vasilevo,admin,0
Gostivar,41.796,20.9082,Macedonia,MKD,Gostivar,admin,0
Vrapciste,41.8344,20.8856,Macedonia,MKD,Vrapčište,admin,0
Novaci,41.042,21.4587,Macedonia,MKD,Novaci,admin,0
Caska,41.6487,21.6922,Macedonia,MKD,Čaška,admin,0
Kratovo,42.0784,22.1807,Macedonia,MKD,Kratovo,admin,0
Probistip,42.0019,22.1728,Macedonia,MKD,Probištip,admin,0
Debar,41.5244,20.5242,Macedonia,MKD,Debar,admin,0
Centar Zupa,41.4788,20.5586,Macedonia,MKD,Centar Župa,admin,0
Rosoman,41.5167,21.9458,Macedonia,MKD,Rosoman,admin,0
Jegunovce,42.0724,21.1237,Macedonia,MKD,Jegunovce,admin,0
Demir Kapija,41.4061,22.2463,Macedonia,MKD,Demir Kapija,admin,0
Negotino,41.4846,22.0906,Macedonia,MKD,Negotino,admin,0
Konce,41.4951,22.3836,Macedonia,MKD,Konče,admin,0
Dolneni,41.4258,21.454,Macedonia,MKD,Dolneni,admin,0
Sveti Nikole,41.8667,21.9411,Macedonia,MKD,Sveti Nikole,admin,0
Valandovo,41.3174,22.56,Macedonia,MKD,Valandovo,admin,0
Kicevo,41.5127,20.9589,Macedonia,MKD,Kičevo,admin,0
Delcevo,41.9654,22.7763,Macedonia,MKD,Delčevo,admin,0
Tetovo,42.0092,20.9701,Macedonia,MKD,Tetovo,admin,119132
Cesinovo,41.8715,22.2896,Macedonia,MKD,Češinovo-Obleševo,admin,0
Karbinci,41.8176,22.2353,Macedonia,MKD,Karbinci,admin,0
Tearce,42.0767,21.0531,Macedonia,MKD,Tearce,admin,0
Kriva Palanka,42.2009,22.3324,Macedonia,MKD,Kriva Palanka,admin,0
Rankovce,42.1686,22.1166,Macedonia,MKD,Rankovce,admin,0
Pehcevo,41.7623,22.8892,Macedonia,MKD,Pehčevo,admin,0
Gevgelija,41.1417,22.5014,Macedonia,MKD,Gevgelija,admin,0
Bogdanci,41.2031,22.5756,Macedonia,MKD,Bogdanci,admin,0
Berovo,41.7031,22.8578,Macedonia,MKD,Berovo,admin,0
Brvenica,41.9672,20.9808,Macedonia,MKD,Brvenica,admin,0
Aguelhok,19.4549,0.8564,Mali,MLI,Kidal,,9000
Bamako,12.65,-8,Mali,MLI,Bamako,primary,1494000
Kidal,18.4411,1.4078,Mali,MLI,Kidal,admin,0
Bourem,16.9004,-0.35,Mali,MLI,Gao,,30000
Mopti,14.49,-4.18,Mali,MLI,Mopti,admin,108456
Gao,16.2666,-0.05,Mali,MLI,Gao,admin,116967
Satadougou,12.617,-11.4066,Mali,MLI,Kayes,,706
Koulikoro,12.8833,-7.55,Mali,MLI,Koulikoro,admin,23919
Sikasso,11.3204,-5.68,Mali,MLI,Sikasso,admin,225753
Araouane,18.9,-3.53,Mali,MLI,Tombouctou,,4026
Segou,13.44,-6.26,Mali,MLI,Ségou,admin,122952
Timbuktu,16.7666,-3.0166,Mali,MLI,Tombouctou,admin,68872
Markala,13.6704,-6.07,Mali,MLI,Ségou,,53738
Taoudenni,22.6666,-3.9834,Mali,MLI,Tombouctou,,3019
Kayes,14.45,-11.44,Mali,MLI,Kayes,admin,77207
Sokolo,14.7337,-6.1333,Mali,MLI,Ségou,,4374
Kita,13.0504,-9.4833,Mali,MLI,Kayes,minor,46435
Nara,15.18,-7.28,Mali,MLI,Koulikoro,minor,18459
Kati,12.7504,-8.08,Mali,MLI,Koulikoro,minor,66895
Kangaba,11.9404,-8.44,Mali,MLI,Koulikoro,minor,17232
San,13.3004,-4.9,Mali,MLI,Ségou,minor,41386
Bougouni,11.4204,-7.49,Mali,MLI,Sikasso,minor,35450
Koutiala,12.3904,-5.47,Mali,MLI,Sikasso,minor,104927
Djenne,13.9,-4.55,Mali,MLI,Mopti,minor,32944
Yelimane,15.1337,-10.5666,Mali,MLI,Kayes,minor,988
Bafoulabe,13.8004,-10.82,Mali,MLI,Kayes,minor,26823
Nioro du Sahel,15.2304,-9.59,Mali,MLI,Kayes,minor,14421
Goundam,16.417,-3.6666,Mali,MLI,Tombouctou,minor,8456
Menaka,15.9167,2.4,Mali,MLI,Gao,minor,9110
Tessalit,20.2014,1.0888,Mali,MLI,Kidal,minor,6000
Banamba,13.5504,-7.45,Mali,MLI,Koulikoro,minor,30591
Rangoon,16.7834,96.1667,Burma,MMR,Yangon,primary,4088000
Allanmyo,19.3783,95.2279,Burma,MMR,Magway,,57897
Mudon,16.2618,97.7215,Burma,MMR,Mon State,,152300
Mawlamyine,16.5004,97.67,Burma,MMR,Mon State,admin,438861
Phyarpon,16.2933,95.6829,Burma,MMR,Ayeyawady,,65601
Labutta,16.1619,94.7014,Burma,MMR,Ayeyawady,,1667
Dawei,14.098,98.195,Burma,MMR,Taninthayi,admin,146212
Myeik,12.4541,98.6115,Burma,MMR,Taninthayi,,266720
Ye,15.2533,97.8679,Burma,MMR,Mon State,,50798
Namtu,23.0837,97.4,Burma,MMR,Shan State,,48591
Hinthada,17.6483,95.4679,Burma,MMR,Ayeyawady,,180728
Thongwa,16.7547,96.5193,Burma,MMR,Yangon,,52496
Bago,17.32,96.515,Burma,MMR,Bago,admin,284318
Pathein,16.7704,94.75,Burma,MMR,Ayeyawady,admin,237089
Yandoon,17.0433,95.6429,Burma,MMR,Ayeyawady,,36172
Wakema,16.6133,95.1829,Burma,MMR,Ayeyawady,,48405
Pyay,18.8165,95.2114,Burma,MMR,Bago,,135308
Chauk,20.9085,94.823,Burma,MMR,Magway,,90870
Myitkyina,25.3596,97.3928,Burma,MMR,Kachin State,admin,139100
Monywa,22.105,95.15,Burma,MMR,Sagaing,,226222
Naypyidaw,19.7666,96.1186,Burma,MMR,Nay Pyi Taw,primary,930000
Loikaw,19.665,97.206,Burma,MMR,Kayah State,admin,17293
Yaynangyoung,20.4615,94.881,Burma,MMR,Magway,,110553
Kyaukphyu,19.429,93.5494,Burma,MMR,Rakhine State,,4261
Magway,20.1445,94.9196,Burma,MMR,Magway,admin,125973
Shwebo,22.5783,95.6929,Burma,MMR,Sagaing,,88914
Sagaing,21.88,95.962,Burma,MMR,Sagaing,admin,78739
Myingyan,21.4618,95.3914,Burma,MMR,Mandalay,,163812
Pakokku,21.332,95.0866,Burma,MMR,Magway,,126938
Mandalay,21.97,96.085,Burma,MMR,Mandalay,admin,1300000
Taunggyi,20.782,97.038,Burma,MMR,Shan State,admin,160115
Pyu,18.4779,96.4379,Burma,MMR,Bago,,40386
Taungoo,18.9483,96.4179,Burma,MMR,Bago,,106945
Letpadan,17.7819,95.7415,Burma,MMR,Bago,,176571
Sittwe,20.14,92.88,Burma,MMR,Rakhine State,admin,179032
Pa-an,16.85,97.6167,Burma,MMR,Kayin State,admin,50000
Hakha,22.65,93.6167,Burma,MMR,Chin State,admin,20000
Olgiy,48.9337,89.95,Mongolia,MNG,Bayan-Ölgiy,admin,34934
Mandalgovi,45.75,106.266,Mongolia,MNG,Dundgovĭ,admin,2984
Ulaanbaatar,47.9167,106.9166,Mongolia,MNG,Ulaanbaatar,primary,885000
Moron,49.6453,100.1544,Mongolia,MNG,Hövsgöl,admin,27690
Darhan,49.6167,106.35,Mongolia,MNG,Selenge,,74738
Erdenet,49.0533,104.1183,Mongolia,MNG,Orhon,admin,79647
Uliastay,47.75,96.8167,Mongolia,MNG,Dzavhan,admin,8056
Choyr,46.3611,108.3611,Mongolia,MNG,Govĭsümber,admin,0
Altay,46.3722,96.2583,Mongolia,MNG,Govĭ-Altay,admin,0
Buyant-Uhaa,44.8666,110.15,Mongolia,MNG,Dornogovĭ,admin,8776
Choybalsan,48.0666,114.506,Mongolia,MNG,Dornod,admin,33376
Ulaangom,49.9833,92.0666,Mongolia,MNG,Uvs,admin,35796
Bulgan,48.8106,103.5317,Mongolia,MNG,Bulgan,admin,17348
Arvayheer,46.25,102.7666,Mongolia,MNG,Övörhangay,admin,28053
Tsetserleg,47.4769,101.4502,Mongolia,MNG,Arhangay,admin,19812
Bayankhongor,46.3,100.9833,Mongolia,MNG,Bayanhongor,admin,26252
Darhan,49.4867,105.9228,Mongolia,MNG,Darhan-Uul,admin,0
Dzuunharaa,48.8666,106.4666,Mongolia,MNG,Selenge,,18830
Dzuunmod,47.711,106.947,Mongolia,MNG,Töv,admin,17738
Ondorhaan,47.3167,110.65,Mongolia,MNG,Hentiy,admin,14723
Dalandzadgad,43.5836,104.4403,Mongolia,MNG,Ömnögovĭ,admin,15093
Ulaan-Uul,44.3337,111.2333,Mongolia,MNG,Dornogovĭ,minor,3726
Hodrogo,48.9664,96.7833,Mongolia,MNG,Dzavhan,minor,10
Baruun Urt,46.7,113.2833,Mongolia,MNG,Sühbaatar,admin,15805
Suchboatar,50.25,106.2,Mongolia,MNG,Selenge,admin,24235
Dund-Us,48.0166,91.6333,Mongolia,MNG,Hovd,admin,30500
Macau,22.203,113.545,Macau,MAC,,,568700
Fort-de-France,14.6104,-61.08,Martinique,MTQ,,admin,253995
Bogue,16.5904,-14.27,Mauritania,MRT,Brakna,,10415
Chegga,25.3804,-5.78,Mauritania,MRT,Tiris Zemmour,,10
Boutilimit,17.5504,-14.7,Mauritania,MRT,Trarza,,14142
Timbedra,16.2504,-8.1666,Mauritania,MRT,Hodh ech Chargui,,245
Bir Mogrein,25.2333,-11.5833,Mauritania,MRT,Tiris Zemmour,,10
Fderik,22.679,-12.707,Mauritania,MRT,Tiris Zemmour,,5760
Selibaby,15.167,-12.1833,Mauritania,MRT,Guidimaka,admin,460
Aleg,17.058,-13.909,Mauritania,MRT,Brakna,admin,8388
Akjoujt,19.747,-14.391,Mauritania,MRT,Inchiri,admin,370
Kiffa,16.62,-11.4,Mauritania,MRT,Assaba,admin,73930
Nema,16.6171,-7.25,Mauritania,MRT,Hodh ech Chargui,admin,200000
Nouadhibou,20.9,-17.056,Mauritania,MRT,Dakhlet Nouadhibou,admin,86738
Rosso,16.524,-15.8127,Mauritania,MRT,Trarza,admin,47203
Tidjikdja,18.55,-11.4166,Mauritania,MRT,Tagant,admin,19981
Atar,20.5166,-13.05,Mauritania,MRT,Adrar,admin,44265
Kaedi,16.1503,-13.5037,Mauritania,MRT,Gorgol,admin,0
Zouirat,22.7304,-12.4833,Mauritania,MRT,Tiris Zemmour,admin,56345
Arafat,18.0583,-15.9621,Mauritania,MRT,Nouakchott Sud,admin,0
Dar Naim,18.0973,-15.9327,Mauritania,MRT,Nouakchott Nord,admin,0
Tevragh Zeina,18.0989,-15.9885,Mauritania,MRT,Nouakchott Ouest,admin,0
Nouakchott,18.0864,-15.9753,Mauritania,MRT,,primary,742144
Ayoun el Atrous,16.6666,-9.6167,Mauritania,MRT,Hodh el Gharbi,admin,1423
Plymouth,16.7,-62.2167,Montserrat,MSR,Saint Anthony,primary,0
Birzebbuga,35.8258,14.5269,Malta,MLT,Birżebbuġa,admin,0
Marsaskala,35.8669,14.5619,Malta,MLT,Marsaskala,admin,0
Marsaxlokk,35.8419,14.5431,Malta,MLT,Marsaxlokk,admin,0
Kirkop,35.8422,14.4853,Malta,MLT,Kirkop,admin,0
Pieta,35.8947,14.495,Malta,MLT,Pietà,admin,0
Zejtun,35.8558,14.5331,Malta,MLT,Żejtun,admin,0
Attard,35.8897,14.4425,Malta,MLT,Attard,admin,0
Pembroke,35.9306,14.4764,Malta,MLT,Pembroke,admin,0
Zebbug,35.8719,14.4411,Malta,MLT,Żebbuġ,admin,0
Ta' Xbiex,35.8992,14.4944,Malta,MLT,Ta’ Xbiex,admin,0
Sliema,35.9125,14.5019,Malta,MLT,Sliema,admin,0
San Lawrenz,36.0556,14.2036,Malta,MLT,San Lawrenz,admin,0
Imqabba,35.8461,14.4672,Malta,MLT,Imqabba,admin,0
Imdina,35.8869,14.4025,Malta,MLT,Imdina,admin,0
Qala,36.0361,14.3094,Malta,MLT,Qala,admin,0
Imtarfa,35.8933,14.3989,Malta,MLT,Imtarfa,admin,0
Zurrieq,35.8311,14.4742,Malta,MLT,Żurrieq,admin,0
Gudja,35.8492,14.5031,Malta,MLT,Gudja,admin,0
Sannat,36.0244,14.2428,Malta,MLT,Sannat,admin,0
Valletta,35.8997,14.5147,Malta,MLT,Valletta,primary,368250
Zabbar,35.8761,14.535,Malta,MLT,Żabbar,admin,0
Luqa,35.8589,14.4886,Malta,MLT,Luqa,admin,0
Qormi,35.8783,14.4719,Malta,MLT,Qormi,admin,0
Imgarr,35.9206,14.3664,Malta,MLT,Imġarr,admin,0
Saint Paul's Bay,35.9483,14.4006,Malta,MLT,San Pawl il-Baħar,admin,0
Qrendi,35.8347,14.4583,Malta,MLT,Qrendi,admin,0
Munxar,36.03,14.2333,Malta,MLT,Munxar,admin,0
Hamrun,35.8847,14.4844,Malta,MLT,Ħamrun,admin,0
Naxxar,35.9136,14.4436,Malta,MLT,Naxxar,admin,0
Ghaxaq,35.8489,14.5167,Malta,MLT,Għaxaq,admin,0
Ghasri,36.0578,14.2264,Malta,MLT,Għasri,admin,0
Victoria,36.0444,14.2397,Malta,MLT,Rabat (Ghawdex),admin,0
Iklin,35.9092,14.4522,Malta,MLT,Iklin,admin,0
Gharghur,35.9242,14.4519,Malta,MLT,Għargħur,admin,0
Dingli,35.8614,14.3822,Malta,MLT,Dingli,admin,0
Siggiewi,35.8556,14.4364,Malta,MLT,Siġġiewi,admin,0
Xewkija,36.0328,14.2581,Malta,MLT,Xewkija,admin,0
Lija,35.9006,14.4464,Malta,MLT,Lija,admin,0
Safi,35.8331,14.4847,Malta,MLT,Safi,admin,0
Senglea,35.8875,14.5169,Malta,MLT,Isla,admin,0
Xaghra,36.05,14.2644,Malta,MLT,Xagħra,admin,0
Xghajra,35.8856,14.5475,Malta,MLT,Xgħajra,admin,0
Zebbug,36.0722,14.2358,Malta,MLT,Żebbuġ (Ghawdex),admin,0
Gzira,35.9058,14.4881,Malta,MLT,Gżira,admin,0
Imsida,35.8925,14.4828,Malta,MLT,Imsida,admin,0
Kalkara,35.8892,14.5328,Malta,MLT,Kalkara,admin,0
Kercem,36.0419,14.2267,Malta,MLT,Kerċem,admin,0
Mellieha,35.9564,14.3622,Malta,MLT,Mellieħa,admin,0
Mosta,35.9092,14.4256,Malta,MLT,Mosta,admin,0
Nadur,36.0378,14.2942,Malta,MLT,Nadur,admin,0
Paola,35.8731,14.4989,Malta,MLT,Paola,admin,0
Rabat,35.8822,14.3981,Malta,MLT,Rabat,admin,0
Marsa,35.8792,14.4953,Malta,MLT,Marsa,admin,0
San Giljan,35.9197,14.4844,Malta,MLT,San Ġiljan,admin,0
San Gwann,35.9056,14.4761,Malta,MLT,San Ġwann,admin,0
Santa Lucija,36.0431,14.2172,Malta,MLT,Santa Luċija,admin,0
Santa Venera,35.8908,14.4742,Malta,MLT,Santa Venera,admin,0
Swieqi,35.9225,14.48,Malta,MLT,Swieqi,admin,0
Tarxien,35.8658,14.515,Malta,MLT,Tarxien,admin,0
Balzan,35.9003,14.455,Malta,MLT,Balzan,admin,0
Vittoriosa,35.8922,14.5183,Malta,MLT,Birgu,admin,0
Birkirkara,35.8972,14.4611,Malta,MLT,Birkirkara,admin,0
Cospicua,35.8856,14.5275,Malta,MLT,Bormla,admin,0
Fgura,35.8703,14.5133,Malta,MLT,Fgura,admin,0
Floriana,35.8958,14.5083,Malta,MLT,Floriana,admin,0
Fontana,36.0375,14.2361,Malta,MLT,Fontana,admin,0
Ghajnsielem,36.0264,14.285,Malta,MLT,Għajnsielem,admin,0
Gharb,36.06,14.2089,Malta,MLT,Għarb,admin,0
Port Louis,-20.1666,57.5,Mauritius,MUS,Port Louis,primary,595491
Curepipe,-20.3162,57.5166,Mauritius,MUS,Plaines Wilhems,,299975
Male,4.1667,73.4999,Maldives,MDV,Maale,primary,112927
Dhidhdhoo,6.8874,73.114,Maldives,MDV,,admin,0
Eydhafushi,5.1038,73.0699,Maldives,MDV,,admin,0
Felidhoo,3.4718,73.547,Maldives,MDV,,admin,0
Funadhoo,6.1509,73.2901,Maldives,MDV,,admin,0
Hithadhoo,-0.6,73.0833,Maldives,MDV,,admin,0
Kudahuvadhoo,2.6717,72.8936,Maldives,MDV,,admin,0
Magoodhoo,3.0789,72.9647,Maldives,MDV,,admin,0
Kulhudhuffushi,6.6223,73.0702,Maldives,MDV,,admin,0
Mahibadhoo,3.7571,72.9689,Maldives,MDV,,admin,0
Manadhoo,5.7669,73.4136,Maldives,MDV,,admin,0
Muli,2.9217,73.5811,Maldives,MDV,,admin,0
Naifaru,5.4442,73.3662,Maldives,MDV,,admin,0
Thinadhoo,0.5303,72.9967,Maldives,MDV,,admin,0
Un'goofaaru,5.6681,73.0302,Maldives,MDV,,admin,0
Veymandoo,2.1878,73.095,Maldives,MDV,,admin,0
Villin'gili,0.7539,73.4353,Maldives,MDV,,admin,0
Fonadhoo,1.8342,73.5031,Maldives,MDV,,admin,0
Fuvahmulaku,-0.3,73.4256,Maldives,MDV,,admin,0
Rasdhoo,4.2631,72.9919,Maldives,MDV,,admin,0
Thulusdhoo,4.3742,73.6517,Maldives,MDV,,admin,0
Thyolo,-16.0703,35.1471,Malawi,MWI,Thyolo,admin,0
Mwanza,-15.6167,34.5167,Malawi,MWI,Mwanza,admin,11379
Chiradzulu,-15.7,35.1833,Malawi,MWI,Chiradzulu,admin,1580
Karonga,-9.9329,33.9333,Malawi,MWI,Karonga,admin,34207
Neno,-15.3981,34.6534,Malawi,MWI,Neno,admin,0
Zomba,-15.39,35.31,Malawi,MWI,Zomba,admin,80932
Chikwawa,-16.042,34.8019,Malawi,MWI,Chikwawa,admin,0
Mulanje,-16.0333,35.5,Malawi,MWI,Mulanje,admin,16483
Blantyre,-15.79,34.9899,Malawi,MWI,Blantyre,admin,584877
Chiromo,-16.55,35.1332,Malawi,MWI,Nsanje,,25235
Phalombe,-15.8064,35.6507,Malawi,MWI,Phalombe,admin,0
Nsanje,-16.9167,35.2667,Malawi,MWI,Nsanje,admin,21774
Nkhata Bay,-11.5996,34.3,Malawi,MWI,Nkhata Bay,admin,22108
Rumphi,-11.0195,33.8546,Malawi,MWI,Rumphi,admin,0
Chitipa,-9.7162,33.2666,Malawi,MWI,Chitipa,admin,13412
Mzuzu,-11.46,34.02,Malawi,MWI,,,110201
Mzimba,-11.9,33.6,Malawi,MWI,Mzimba,admin,19308
Ntchisi,-13.3753,34.0036,Malawi,MWI,Ntchisi,admin,0
Dowa,-13.6532,33.9385,Malawi,MWI,Dowa,admin,0
Mchinji,-13.8,32.9,Malawi,MWI,Mchinji,admin,18305
Nkhotakota,-12.9163,34.3,Malawi,MWI,Nkhotakota,admin,59854
Kasungu,-13.0364,33.4822,Malawi,MWI,Kasungu,admin,0
Ntcheu,-14.8167,34.6333,Malawi,MWI,Ntcheu,admin,10445
Dedza,-14.3667,34.3333,Malawi,MWI,Dedza,admin,15608
Salima,-13.7829,34.4333,Malawi,MWI,Salima,admin,71181
Lilongwe,-13.9833,33.7833,Malawi,MWI,Lilongwe,primary,646750
Mangochi,-14.4596,35.27,Malawi,MWI,Mangochi,admin,97711
Balaka,-14.9889,34.9591,Malawi,MWI,Balaka,admin,0
Machinga,-14.9667,35.5167,Malawi,MWI,Machinga,admin,1418
Nacozari de Garcia,30.42,-109.65,Mexico,MEX,Sonora,,11872
Nueva Rosita,27.95,-101.22,Mexico,MEX,Coahuila de Zaragoza,,36642
San Felipe,31.0241,-114.8496,Mexico,MEX,Baja California,,20750
Zacatecas,22.7704,-102.58,Mexico,MEX,Zacatecas,admin,234481
Irapuato,20.67,-101.5,Mexico,MEX,Guanajuato,minor,339554
Vicente Guerrero,30.7641,-116.0093,Mexico,MEX,Baja California,,12829
San Quintin,30.4837,-115.95,Mexico,MEX,Baja California,,5433
Chetumal,18.5,-88.3,Mexico,MEX,Quintana Roo,admin,154517
Esperanza,27.58,-109.93,Mexico,MEX,Sonora,,3836
Izamal,20.9304,-89.0201,Mexico,MEX,Yucatán,,14954
Ticul,20.4004,-89.53,Mexico,MEX,Yucatán,,30519
Villahermosa,18,-92.9,Mexico,MEX,Tabasco,admin,428564
Mazatlan,23.2211,-106.42,Mexico,MEX,Sinaloa,minor,368204
Ciudad Victoria,23.72,-99.13,Mexico,MEX,Tamaulipas,admin,274900
Mexicali,32.65,-115.48,Mexico,MEX,Baja California,admin,885000
Aguascalientes,21.8795,-102.2904,Mexico,MEX,Aguascalientes,admin,869000
Chihuahua,28.645,-106.085,Mexico,MEX,Chihuahua,admin,793000
Guanajuato,21.0204,-101.28,Mexico,MEX,Guanajuato,admin,112200
Chilpancingo,17.55,-99.5,Mexico,MEX,Guerrero,admin,182387
Pachuca,20.1704,-98.73,Mexico,MEX,Hidalgo,admin,319581
Guadalajara,20.67,-103.33,Mexico,MEX,Jalisco,admin,4198000
Cuernavaca,18.9211,-99.24,Mexico,MEX,Morelos,admin,834001
Monterrey,25.67,-100.33,Mexico,MEX,Nuevo León,admin,3712000
Lazaro Cardenas,17.9587,-102.2,Mexico,MEX,Michoacán de Ocampo,,160087
Miahuatlan,16.33,-96.6,Mexico,MEX,Oaxaca,minor,17632
Mitla,16.917,-96.4,Mexico,MEX,Oaxaca,minor,7547
Valladolid,20.6704,-88.2,Mexico,MEX,Yucatán,,48479
Ciudad Constitucion,25.04,-111.66,Mexico,MEX,Baja California Sur,minor,39915
Villa Union,23.2,-106.23,Mexico,MEX,Sinaloa,,15443
Eldorado,24.3305,-107.37,Mexico,MEX,Sinaloa,,17365
Tekax,20.2,-89.28,Mexico,MEX,Yucatán,,22806
Montemorelos,25.19,-99.84,Mexico,MEX,Nuevo León,minor,42640
Xalapa,19.53,-96.92,Mexico,MEX,Veracruz,admin,452186
Teziutlan,19.8204,-97.36,Mexico,MEX,Puebla,,177796
Motul,21.1,-89.28,Mexico,MEX,Yucatán,,21253
Merida,20.9666,-89.6166,Mexico,MEX,Yucatán,admin,965000
Guerrero Negro,27.9904,-114.17,Mexico,MEX,Baja California,,13054
Saltillo,25.42,-101.005,Mexico,MEX,Coahuila de Zaragoza,admin,754000
Punta Prieta,28.9337,-114.1666,Mexico,MEX,Baja California,,527
Salina Cruz,16.1671,-95.2,Mexico,MEX,Oaxaca,,81063
Durango,24.0311,-104.67,Mexico,MEX,Durango,admin,457140
Acatlan,18.2,-98.05,Mexico,MEX,Puebla,,18879
Tepic,21.5054,-104.88,Mexico,MEX,Nayarit,admin,318781
Tecuala,22.4004,-105.46,Mexico,MEX,Nayarit,minor,14921
Ayutla,16.9004,-99.22,Mexico,MEX,Guerrero,minor,9897
Huajuapan de Leon,17.8104,-97.79,Mexico,MEX,Oaxaca,minor,47844
Pochutla,15.7304,-96.47,Mexico,MEX,Oaxaca,minor,24481
Colima,19.23,-103.72,Mexico,MEX,Colima,admin,223287
Autlan,19.77,-104.37,Mexico,MEX,Jalisco,minor,47669
Coalcoman,18.7804,-103.15,Mexico,MEX,Michoacán de Ocampo,minor,10715
Apatzingan,19.08,-102.35,Mexico,MEX,Michoacán de Ocampo,,98422
Halacho,20.48,-90.08,Mexico,MEX,Yucatán,minor,9165
Peto,20.13,-88.92,Mexico,MEX,Yucatán,,17607
Papasquiaro,24.8304,-105.34,Mexico,MEX,Durango,,22750
Puerto Escondido,15.8592,-97.0659,Mexico,MEX,Oaxaca,,19488
Hermosillo,29.0989,-110.9541,Mexico,MEX,Sonora,admin,595811
Juchitan,16.43,-95.02,Mexico,MEX,Oaxaca,minor,67637
San Luis Potosi,22.17,-101,Mexico,MEX,San Luis Potosí,admin,992000
Culiacan,24.83,-107.38,Mexico,MEX,Sinaloa,admin,809000
Uruapan,19.4204,-102.07,Mexico,MEX,Michoacán de Ocampo,minor,264531
Tehuantepec,16.33,-95.23,Mexico,MEX,Oaxaca,minor,42776
Salamanca,20.5704,-101.2,Mexico,MEX,Guanajuato,minor,197524
Mexico City,19.4424,-99.131,Mexico,MEX,Ciudad de México,primary,19028000
Zamora,19.9804,-102.28,Mexico,MEX,Michoacán de Ocampo,,214947
Tlaxiaco,17.2704,-97.68,Mexico,MEX,Oaxaca,minor,21391
Petatlan,17.5204,-101.27,Mexico,MEX,Guerrero,minor,31910
La Cruz,23.9204,-106.9,Mexico,MEX,Sinaloa,minor,11900
Allende,28.33,-100.85,Mexico,MEX,Coahuila de Zaragoza,minor,19636
Agua Prieta,31.3223,-109.563,Mexico,MEX,Sonora,minor,86083
Piedras Negras,28.7076,-100.5317,Mexico,MEX,Coahuila de Zaragoza,minor,139619
Reynosa,26.08,-98.3,Mexico,MEX,Tamaulipas,minor,498654
Ojinaga,29.5404,-104.41,Mexico,MEX,Chihuahua,minor,22128
La Paz,24.14,-110.32,Mexico,MEX,Baja California Sur,admin,189767
Tapachula,14.9,-92.27,Mexico,MEX,Chiapas,minor,221521
Escuintla,15.33,-92.63,Mexico,MEX,Chiapas,minor,107638
Atlixco,18.9,-98.45,Mexico,MEX,Puebla,minor,97842
Orizaba,18.85,-97.13,Mexico,MEX,Veracruz,minor,355333
Taxco,18.5704,-99.62,Mexico,MEX,Guerrero,minor,53217
Iguala,18.37,-99.54,Mexico,MEX,Guerrero,minor,112106
Cabo San Lucas,22.8928,-109.9045,Mexico,MEX,Baja California Sur,,42601
Villanueva,22.35,-102.88,Mexico,MEX,Zacatecas,minor,11138
Tecpan,17.25,-100.68,Mexico,MEX,Guerrero,minor,14638
Atoyac,17.2,-100.43,Mexico,MEX,Guerrero,minor,20515
Jaltipan,17.94,-94.74,Mexico,MEX,Veracruz,minor,66998
La Barca,20.2804,-102.56,Mexico,MEX,Jalisco,minor,35345
Queretaro,20.63,-100.38,Mexico,MEX,Querétaro,admin,961000
Leon,21.15,-101.7,Mexico,MEX,Guanajuato,minor,1488000
Pijijiapan,15.6904,-93.22,Mexico,MEX,Chiapas,minor,23675
Campeche,19.83,-90.5,Mexico,MEX,Campeche,admin,205212
Toluca,19.3304,-99.67,Mexico,MEX,México,admin,1531000
Tlaxcala,19.32,-98.23,Mexico,MEX,Tlaxcala,admin,503878
Oaxaca,17.0827,-96.6699,Mexico,MEX,Oaxaca,admin,530728
Puebla,19.05,-98.2,Mexico,MEX,Puebla,admin,2195000
Tuxtla Gutierrez,16.75,-93.15,Mexico,MEX,Chiapas,admin,481128
Lagos de Moreno,21.3704,-101.93,Mexico,MEX,Jalisco,minor,94127
Progreso,21.2833,-89.6666,Mexico,MEX,Yucatán,minor,47124
Tuxpam,20.9604,-97.41,Mexico,MEX,Veracruz,minor,109049
Balancan,17.8,-91.53,Mexico,MEX,Tabasco,minor,11895
Tizimin,21.1304,-88.15,Mexico,MEX,Yucatán,minor,41993
Los Mochis,25.79,-109,Mexico,MEX,Sinaloa,minor,249047
Altata,24.636,-107.9162,Mexico,MEX,Sinaloa,,1000
Navajoa,27.0819,-109.4546,Mexico,MEX,Sonora,minor,116093
Santa Barbara,26.8004,-105.82,Mexico,MEX,Chihuahua,minor,10800
Ciudad Hidalgo,19.68,-100.57,Mexico,MEX,Michoacán de Ocampo,minor,64154
Parras,25.4204,-102.1799,Mexico,MEX,Coahuila de Zaragoza,minor,32253
Hidalgo del Parral,26.9334,-105.6666,Mexico,MEX,Chihuahua,minor,103378
Delicias,28.2,-105.5,Mexico,MEX,Chihuahua,,114783
Ensenada,31.87,-116.62,Mexico,MEX,Baja California,minor,256565
Linares,24.8604,-99.57,Mexico,MEX,Nuevo León,minor,57731
San Juan del Rio,20.38,-100,Mexico,MEX,Querétaro,minor,147559
Minatitlan,17.9805,-94.53,Mexico,MEX,Veracruz,minor,201902
Villa Ahumada,30.6104,-106.51,Mexico,MEX,Chihuahua,minor,9326
Tehuacan,18.4504,-97.38,Mexico,MEX,Puebla,minor,241429
Ciudad del Carmen,18.6537,-91.8245,Mexico,MEX,Campeche,minor,156195
Morelia,19.7334,-101.1895,Mexico,MEX,Michoacán de Ocampo,,644306
Escuinapa,22.8504,-105.8,Mexico,MEX,Sinaloa,minor,28248
Nezahualcoyotl,19.41,-99.03,Mexico,MEX,México,,1109363
Gomez Palacio,25.5701,-103.5,Mexico,MEX,Durango,minor,399328
Paraiso,18.4,-93.23,Mexico,MEX,Tabasco,minor,23830
Frontera,18.5804,-92.65,Mexico,MEX,Tabasco,minor,22621
Tenosique,17.4804,-91.43,Mexico,MEX,Tabasco,minor,32415
Tecoman,18.9204,-103.88,Mexico,MEX,Colima,minor,91321
Aldama,22.9204,-98.07,Mexico,MEX,Tamaulipas,minor,12292
Loreto,26.0133,-111.3517,Mexico,MEX,Baja California Sur,minor,11227
Santa Rosalia,27.3171,-112.2834,Mexico,MEX,Baja California Sur,minor,11899
El Fuerte,26.4204,-108.62,Mexico,MEX,Sinaloa,minor,11171
Guasave,25.5705,-108.47,Mexico,MEX,Sinaloa,minor,96860
Manzanillo,19.0496,-104.3231,Mexico,MEX,Colima,minor,110735
Celaya,20.53,-100.8,Mexico,MEX,Guanajuato,minor,383697
San Pedro de las Colonias,25.7592,-102.9827,Mexico,MEX,Coahuila de Zaragoza,minor,53688
Monclova,26.9,-101.42,Mexico,MEX,Coahuila de Zaragoza,minor,236244
Torreon,25.5701,-103.42,Mexico,MEX,Coahuila de Zaragoza,minor,1144000
Nogales,31.305,-110.945,Mexico,MEX,Sonora,minor,178097
Rio Verde,21.93,-99.98,Mexico,MEX,San Luis Potosí,minor,69613
Tamuin,21.9804,-98.75,Mexico,MEX,San Luis Potosí,minor,14748
Tamazunchale,21.2704,-98.78,Mexico,MEX,San Luis Potosí,minor,72685
Ciudad Valles,21.98,-99.02,Mexico,MEX,San Luis Potosí,minor,114964
Cardenas,22,-99.67,Mexico,MEX,San Luis Potosí,minor,15331
Guamuchil,25.4704,-108.09,Mexico,MEX,Sinaloa,minor,62695
Tijuana,32.5,-117.08,Mexico,MEX,Baja California,minor,1553000
Cozumel,20.51,-86.95,Mexico,MEX,Quintana Roo,minor,73934
Isla Mujeres,21.2084,-86.7115,Mexico,MEX,Quintana Roo,minor,12491
Cancun,21.17,-86.83,Mexico,MEX,Quintana Roo,minor,542043
Felipe Carrillo Puerto,19.5804,-88.05,Mexico,MEX,Quintana Roo,minor,24807
Champoton,19.3504,-90.72,Mexico,MEX,Campeche,minor,26636
Cuencame,24.8704,-103.7,Mexico,MEX,Durango,minor,8876
Canatlan,24.52,-104.78,Mexico,MEX,Durango,minor,10342
Compostela,21.2304,-104.9,Mexico,MEX,Nayarit,minor,16162
Santiago Ixcuintla,21.82,-105.22,Mexico,MEX,Nayarit,minor,18365
Tuxpan,21.9304,-105.27,Mexico,MEX,Nayarit,minor,26115
Matehuala,23.6604,-100.65,Mexico,MEX,San Luis Potosí,minor,67717
Fresnillo,23.1704,-102.86,Mexico,MEX,Zacatecas,minor,105488
Valparaiso,22.7704,-103.57,Mexico,MEX,Zacatecas,minor,10545
Sabinas Hidalgo,26.51,-100.18,Mexico,MEX,Nuevo León,minor,32047
Ascension,31.1,-107.98,Mexico,MEX,Chihuahua,minor,11781
Ciudad Juarez,31.6904,-106.49,Mexico,MEX,Chihuahua,minor,1343000
Juan Aldama,24.2904,-103.39,Mexico,MEX,Zacatecas,minor,14162
Caborca,30.7161,-112.1642,Mexico,MEX,Sonora,minor,57357
Magdalena,30.6166,-111.05,Mexico,MEX,Sonora,minor,23359
Mazatlan,29.0171,-110.1333,Mexico,MEX,Sonora,minor,500000
Puerto Vallarta,20.6771,-105.245,Mexico,MEX,Jalisco,minor,187134
Zumpango,19.8104,-99.11,Mexico,MEX,México,minor,250000
Nuevo Laredo,27.5,-99.55,Mexico,MEX,Tamaulipas,minor,349550
Matamoros,25.88,-97.5,Mexico,MEX,Tamaulipas,minor,538785
San Fernando,24.8504,-98.16,Mexico,MEX,Tamaulipas,minor,29171
Ciudad Madero,22.3189,-97.8361,Mexico,MEX,Tamaulipas,minor,192736
Tampico,22.3,-97.87,Mexico,MEX,Tamaulipas,minor,859419
Ciudad Mante,22.7334,-98.95,Mexico,MEX,Tamaulipas,minor,79981
Tula,23.0004,-99.72,Mexico,MEX,Tamaulipas,minor,9054
Ciudad Guzman,19.7104,-103.46,Mexico,MEX,Jalisco,minor,92161
Ciudad Camargo,27.6904,-105.1701,Mexico,MEX,Chihuahua,minor,37743
Cuauhtemoc,28.4257,-106.8696,Mexico,MEX,Chihuahua,minor,90835
Nuevo Casas Grandes,30.4185,-107.9119,Mexico,MEX,Chihuahua,minor,54826
Poza Rica de Hidalgo,20.5504,-97.47,Mexico,MEX,Veracruz,minor,254481
Ometepec,16.6801,-98.42,Mexico,MEX,Guerrero,minor,30271
Ciudad Altamirano,18.3204,-100.65,Mexico,MEX,Guerrero,minor,24533
Huatabampo,26.8304,-109.63,Mexico,MEX,Sonora,minor,30426
Ciudad Obregon,27.4666,-109.925,Mexico,MEX,Sonora,minor,288002
Guaymas,27.93,-110.89,Mexico,MEX,Sonora,minor,103449
Panuco,22.0604,-98.19,Mexico,MEX,Veracruz,minor,35316
Cananea,30.9904,-110.3,Mexico,MEX,Sonora,minor,33433
Acapulco,16.85,-99.916,Mexico,MEX,Guerrero,minor,715584
San Cristobal de Las Casas,16.75,-92.6334,Mexico,MEX,Chiapas,minor,186661
Veracruz,19.1773,-96.16,Mexico,MEX,Veracruz,minor,578963
Coatzacoalcos,18.1204,-94.42,Mexico,MEX,Veracruz,minor,287285
Santiago Tuxtla,18.4704,-95.3,Mexico,MEX,Veracruz,minor,15681
Cordoba,18.9204,-96.92,Mexico,MEX,Veracruz,minor,220563
Nautla,20.2166,-96.7834,Mexico,MEX,Veracruz,minor,2890
Sibu,2.303,111.843,Malaysia,MYS,Sarawak,,203832
Shah Alam,3.0667,101.55,Malaysia,MYS,,,481654
Bintulu,3.1664,113.036,Malaysia,MYS,Sarawak,,151617
Kuching,1.53,110.33,Malaysia,MYS,Sarawak,admin,570407
Victoria,5.2767,115.2417,Malaysia,MYS,Labuan,admin,0
Taiping,4.865,100.72,Malaysia,MYS,Perak,,237095
Chukai,4.2332,103.4479,Malaysia,MYS,Terengganu,,82425
Kuala Lumpur,3.1667,101.7,Malaysia,MYS,Kuala Lumpur ,primary,1448000
Kangar,6.433,100.19,Malaysia,MYS,Perlis,admin,63869
Alor Setar,6.1133,100.3729,Malaysia,MYS,Kedah,admin,336475
George Town,5.4136,100.3294,Malaysia,MYS,Pulau Pinang,admin,2500000
Butterworth,5.4171,100.4,Malaysia,MYS,Pulau Pinang,,821652
Sungai Petani,5.6497,100.4793,Malaysia,MYS,Kedah,,358499
Sandakan,5.843,118.108,Malaysia,MYS,Sabah,,392288
Lahad Datu,5.0464,118.336,Malaysia,MYS,Sabah,,105622
Kota Baharu,6.12,102.23,Malaysia,MYS,Kelantan,minor,505583
Johor Bahru,1.48,103.73,Malaysia,MYS,Johor,admin,875000
Keluang,2.0383,103.3179,Malaysia,MYS,Johor,,169828
Kuala Terengganu,5.3304,103.12,Malaysia,MYS,Terengganu,admin,350210
Ipoh,4.6,101.065,Malaysia,MYS,Perak,admin,673318
Kuantan,3.83,103.32,Malaysia,MYS,Pahang,admin,366229
Kota Kinabalu,5.98,116.11,Malaysia,MYS,Sabah,admin,527671
Tawau,4.271,117.896,Malaysia,MYS,Sabah,,306462
Kuala Lipis,4.184,102.042,Malaysia,MYS,Pahang,,15448
Teluk Intan,4.0119,101.0314,Malaysia,MYS,Perak,,101659
Malacca,2.2064,102.2465,Malaysia,MYS,Melaka,,788706
Muar,2.0337,102.5666,Malaysia,MYS,Johor,,191346
Miri,4.3999,113.9845,Malaysia,MYS,Sarawak,,228212
Seremban,2.7105,101.94,Malaysia,MYS,Negeri Sembilan,admin,372917
Putrajaya,2.914,101.7019,Malaysia,MYS,Negeri Sembilan,,67964
Raub,3.7927,101.8423,Malaysia,MYS,Pahang,,40024
Batu Pahat,1.8504,102.9333,Malaysia,MYS,Johor,,199619
Kelang,3.0204,101.55,Malaysia,MYS,Selangor,admin,956000
Espungabera,-20.4501,32.77,Mozambique,MOZ,Manica,,393
Quelimane,-17.88,36.89,Mozambique,MOZ,Zambézia,admin,188964
Nicuadala,-17.6077,36.8197,Mozambique,MOZ,Zambézia,,6945
Mapai,-22.8427,31.9631,Mozambique,MOZ,Gaza,,201
Mocimboa,-11.3196,40.35,Mozambique,MOZ,,,27909
Maxixe,-23.866,35.3886,Mozambique,MOZ,Inhambane,,119868
Mocambique,-15.0399,40.6822,Mozambique,MOZ,Nampula,,54315
Nampula,-15.136,39.293,Mozambique,MOZ,Nampula,admin,388526
Massangena,-21.5373,32.9564,Mozambique,MOZ,Gaza,,650
Quissico,-24.7257,34.766,Mozambique,MOZ,Inhambane,,1210
Chiramba,-16.8921,34.6559,Mozambique,MOZ,Manica,,556
Xai-Xai,-25.04,33.64,Mozambique,MOZ,Gaza,admin,128805
Ligonha,-15.1757,37.74,Mozambique,MOZ,Nampula,,3500
Vilanculos,-21.9995,35.3166,Mozambique,MOZ,Inhambane,,177
Dondo,-19.6196,34.73,Mozambique,MOZ,Sofala,,78648
Macia,-25.0195,33.09,Mozambique,MOZ,Gaza,,23156
Moatize,-16.0995,33.95,Mozambique,MOZ,Tete,,42000
Angoche,-16.23,39.91,Mozambique,MOZ,Nampula,,57835
Cuamba,-14.7896,36.54,Mozambique,MOZ,Niassa,,73268
Inhambane,-23.858,35.3398,Mozambique,MOZ,Inhambane,admin,115776
Beira,-19.82,34.87,Mozambique,MOZ,Sofala,admin,530604
Lichinga,-13.3,35.24,Mozambique,MOZ,Niassa,admin,109839
Pemba,-12.983,40.5323,Mozambique,MOZ,Cabo Delgado,admin,110643
Panda,-24.0629,34.7303,Mozambique,MOZ,Inhambane,,602
Manica,-18.9696,32.88,Mozambique,MOZ,Manica,,4000
Nacala,-14.5186,40.715,Mozambique,MOZ,Nampula,,224795
Montepuez,-13.1196,39,Mozambique,MOZ,Cabo Delgado,,72279
Maputo,-25.9553,32.5892,Mozambique,MOZ,Maputo,primary,1446000
Mocuba,-16.8496,38.26,Mozambique,MOZ,Zambézia,,68984
Marrupa,-13.1984,37.4995,Mozambique,MOZ,Niassa,,8762
Chimoio,-19.12,33.47,Mozambique,MOZ,Manica,admin,256936
Tete,-16.17,33.58,Mozambique,MOZ,Tete,admin,129316
Matola,-25.9696,32.46,Mozambique,MOZ,Maputo,,543907
Oshikango,-17.3995,15.88,Namibia,NAM,Ohangwena,,12423
Okahandja,-21.9796,16.91,Namibia,NAM,Otjozondjupa,,20879
Ongwediva,-17.78,15.77,Namibia,NAM,Oshana,,25032
Windhoek,-22.57,17.0835,Namibia,NAM,Khomas,primary,268132
Oranjemund,-28.5495,16.43,Namibia,NAM,//Karas,,8496
Otavi,-19.64,17.342,Namibia,NAM,Otjozondjupa,,4562
Rehoboth,-23.3196,17.08,Namibia,NAM,Hardap,,25219
Bethanie,-26.4995,17.15,Namibia,NAM,//Karas,,10363
Karasburg,-28.0196,18.74,Namibia,NAM,//Karas,,6054
Omaruru,-21.436,15.951,Namibia,NAM,Erongo,,11547
Walvis Bay,-22.9575,14.5053,Namibia,NAM,Erongo,,52058
Karibib,-21.939,15.853,Namibia,NAM,Erongo,,6898
Luderitz,-26.648,15.1594,Namibia,NAM,//Karas,,15137
Grootfontein,-19.5666,18.1166,Namibia,NAM,Otjozondjupa,,24099
Usakos,-21.9995,15.58,Namibia,NAM,Erongo,,9147
Outjo,-20.1095,16.14,Namibia,NAM,Kunene,,6557
Katima Mulilo,-17.4996,24.26,Namibia,NAM,Zambezi,admin,25027
Outapi,-17.5,14.9833,Namibia,NAM,Omusati,admin,0
Eenhana,-17.4667,16.3333,Namibia,NAM,Ohangwena,admin,0
Oshakati,-17.7833,15.6833,Namibia,NAM,Oshana,admin,0
Gobabis,-22.455,18.963,Namibia,NAM,Omaheke,admin,16321
Maltahohe,-24.84,16.94,Namibia,NAM,Hardap,,2329
Opuwo,-18.0596,13.82,Namibia,NAM,Kunene,admin,4857
Swakopmund,-22.6689,14.535,Namibia,NAM,Erongo,admin,29491
Keetmanshoop,-26.5739,18.13,Namibia,NAM,//Karas,admin,18039
Otjiwarongo,-20.4595,16.64,Namibia,NAM,Otjozondjupa,admin,24815
Mariental,-24.6196,17.9599,Namibia,NAM,Hardap,admin,13380
Rundu,-17.92,19.7499,Namibia,NAM,Kavango East,admin,58172
Nkurenkuru,-17.6167,18.6,Namibia,NAM,Kavango West,admin,0
Tsumeb,-19.24,17.71,Namibia,NAM,Oshikoto,,14959
Omuthiya,-18.3611,16.5814,Namibia,NAM,Oshikoto,admin,0
Kone,-21.0667,164.8667,New Caledonia,NCL,Province Nord,admin,0
We,-20.9,167.2667,New Caledonia,NCL,Province Îles,admin,0
Noumea,-22.2625,166.4443,New Caledonia,NCL,Province Sud,primary,93060
Niamey,13.5167,2.1167,Niger,NER,Niamey,primary,915000
Maradi,13.4916,7.0964,Niger,NER,Maradi,admin,232555
Zinder,13.8,8.9833,Niger,NER,Zinder,admin,230358
Ayorou,14.7318,0.9195,Niger,NER,Tillabéri,,26290
Gaya,11.8882,3.4467,Niger,NER,Dosso,minor,33051
Arlit,18.82,7.33,Niger,NER,Agadez,minor,100000
Birni Nkonni,13.7904,5.2599,Niger,NER,Tahoua,minor,65252
Madaoua,14.0762,5.9586,Niger,NER,Tahoua,minor,24804
Tahoua,14.9,5.2599,Niger,NER,Tahoua,admin,115956
Nguigmi,14.2532,13.1108,Niger,NER,Diffa,minor,17897
Dosso,13.05,3.2,Niger,NER,Dosso,admin,49750
Goure,13.9874,10.27,Niger,NER,Zinder,minor,14639
Diffa,13.3171,12.6089,Niger,NER,Diffa,admin,30988
Tillaberi,14.212,1.4531,Niger,NER,Tillabéri,admin,19262
Djado,21.015,12.3075,Niger,NER,Agadez,,10
Agadez,16.9959,7.9828,Niger,NER,Agadez,admin,117770
Kingston,-29.0569,167.9617,Norfolk Island,NFK,,primary,0
Abuja,9.0833,7.5333,Nigeria,NGA,Federal Capital Territory,primary,1576000
Uyo,5.008,7.85,Nigeria,NGA,Akwa Ibom,admin,554906
Akure,7.2504,5.2,Nigeria,NGA,Ondo,admin,420594
Koko,11.4232,4.517,Nigeria,NGA,Kebbi,,25792
Port Harcourt,4.81,7.01,Nigeria,NGA,Rivers,admin,1020000
Gombe,10.2904,11.17,Nigeria,NGA,Gombe,admin,270366
Nsukka,6.867,7.3834,Nigeria,NGA,Enugu,minor,111017
Potiskum,11.7104,11.08,Nigeria,NGA,Yobe,minor,86002
Damaturu,11.749,11.966,Nigeria,NGA,Yobe,admin,255895
Wukari,7.8704,9.78,Nigeria,NGA,Taraba,minor,92933
Maiduguri,11.85,13.16,Nigeria,NGA,Borno,admin,896000
Kontagora,10.4004,5.4699,Nigeria,NGA,Niger,minor,98754
Jos,9.93,8.89,Nigeria,NGA,Plateau,admin,816824
Abakaliki,6.3249,8.1137,Nigeria,NGA,Ebonyi,admin,0
Ife,7.4804,4.56,Nigeria,NGA,Osun,minor,482365
Abeokuta,7.1604,3.35,Nigeria,NGA,Ogun,admin,593100
Ikeja,6.5965,3.3421,Nigeria,NGA,Lagos,admin,0
Lagos,6.4433,3.3915,Nigeria,NGA,Lagos,minor,9466000
Ijebu Ode,6.8204,3.92,Nigeria,NGA,Ogun,minor,209175
Iwo,7.63,4.18,Nigeria,NGA,Osun,minor,250443
Oshogbo,7.7704,4.56,Nigeria,NGA,Osun,admin,408245
Ilorin,8.49,4.55,Nigeria,NGA,Kwara,admin,771000
Gusau,12.1704,6.66,Nigeria,NGA,Zamfara,admin,226857
Yenagoa,4.9267,6.2676,Nigeria,NGA,Bayelsa,admin,0
Minna,9.62,6.55,Nigeria,NGA,Niger,admin,291905
Ado Ekiti,7.6304,5.22,Nigeria,NGA,Ekiti,admin,446749
Ibadan,7.38,3.93,Nigeria,NGA,Oyo,admin,2628000
Iseyin,7.97,3.59,Nigeria,NGA,Oyo,minor,98071
Funtua,11.5204,7.32,Nigeria,NGA,Katsina,minor,180475
Katsina,12.9904,7.6,Nigeria,NGA,Katsina,admin,432149
Oyo,7.8504,3.93,Nigeria,NGA,Oyo,minor,736072
Ogbomosho,8.13,4.24,Nigeria,NGA,Oyo,minor,951000
Benin City,6.3405,5.62,Nigeria,NGA,Edo,admin,1190000
Keffi,8.849,7.8736,Nigeria,NGA,Nasarawa,minor,85911
Lafia,8.4904,8.52,Nigeria,NGA,Nasarawa,admin,127236
Ondo,7.0904,4.84,Nigeria,NGA,Ondo,minor,257005
Lokoja,7.8004,6.7399,Nigeria,NGA,Kogi,admin,60579
Sokoto,13.06,5.24,Nigeria,NGA,Sokoto,admin,732178
Kaduna,10.52,7.44,Nigeria,NGA,Kaduna,admin,1442000
Kano,12,8.52,Nigeria,NGA,Kano,admin,3140000
Zaria,11.08,7.71,Nigeria,NGA,Kaduna,minor,889000
Ikare,7.5304,5.76,Nigeria,NGA,Ondo,minor,1099931
Owo,7.2004,5.59,Nigeria,NGA,Ondo,minor,276574
Dutse,11.7992,9.3503,Nigeria,NGA,Jigawa,admin,17129
Idah,7.1104,6.7399,Nigeria,NGA,Kogi,minor,75087
Mubi,10.2703,13.27,Nigeria,NGA,Adamawa,minor,225705
Orlu,5.7837,7.0333,Nigeria,NGA,Imo,minor,9351
Bama,11.5204,13.69,Nigeria,NGA,Borno,minor,118121
Bauchi,10.3104,9.84,Nigeria,NGA,Bauchi,admin,316149
Makurdi,7.73,8.53,Nigeria,NGA,Benue,admin,292645
Oturkpo,7.1904,8.13,Nigeria,NGA,Benue,minor,68220
Onitsha,6.1404,6.78,Nigeria,NGA,Anambra,minor,73374
Awka,6.2104,7.07,Nigeria,NGA,Anambra,admin,500000
Enugu,6.45,7.5,Nigeria,NGA,Enugu,admin,688862
Biu,10.6204,12.19,Nigeria,NGA,Borno,minor,95005
Owerri,5.493,7.026,Nigeria,NGA,Imo,admin,215038
Calabar,4.9604,8.33,Nigeria,NGA,Cross River,admin,461796
Sapele,5.8904,5.68,Nigeria,NGA,Delta,minor,309162
Opobo,4.5704,7.56,Nigeria,NGA,Akwa Ibom,minor,34911
Aba,5.1004,7.35,Nigeria,NGA,Abia,minor,897560
Umuahia,5.532,7.486,Nigeria,NGA,Abia,admin,264662
Warri,5.52,5.76,Nigeria,NGA,Delta,minor,830106
Asaba,6.1985,6.7274,Nigeria,NGA,Delta,admin,0
Bida,9.0804,6.01,Nigeria,NGA,Niger,minor,173849
Kumo,10.0457,11.2131,Nigeria,NGA,Gombe,minor,35712
Azare,11.6804,10.19,Nigeria,NGA,Bauchi,minor,105687
Gashua,12.8705,11.04,Nigeria,NGA,Yobe,minor,125817
Yola,9.21,12.48,Nigeria,NGA,Adamawa,admin,96006
Nguru,12.8804,10.45,Nigeria,NGA,Yobe,minor,111014
Jalingo,8.9004,11.36,Nigeria,NGA,Taraba,admin,117757
Numan,9.4604,12.04,Nigeria,NGA,Adamawa,minor,77617
Birnin Kebbi,12.4504,4.1999,Nigeria,NGA,Kebbi,admin,108164
Managua,12.153,-86.2685,Nicaragua,NIC,Managua,primary,920000
San Juan de Nicaragua,10.9204,-83.7,Nicaragua,NIC,Río San Juan,,1000
San Juan del Sur,11.25,-85.86,Nicaragua,NIC,Rivas,,7790
San Carlos,11.2,-84.8333,Nicaragua,NIC,Río San Juan,admin,13451
Juigalpa,12.11,-85.38,Nicaragua,NIC,Chontales,admin,54731
Boaco,12.47,-85.66,Nicaragua,NIC,Boaco,admin,29046
Granada,11.9337,-85.95,Nicaragua,NIC,Granada,admin,105219
Puerto Cabezas,14.0333,-83.3834,Nicaragua,NIC,Caribe Norte,admin,43001
Jinotepe,11.846,-86.195,Nicaragua,NIC,Carazo,admin,29507
Jinotega,13.091,-86,Nicaragua,NIC,Jinotega,admin,51073
Leon,12.4356,-86.8794,Nicaragua,NIC,León,admin,164441
Esteli,13.09,-86.36,Nicaragua,NIC,Estelí,admin,107839
Somoto,13.476,-86.583,Nicaragua,NIC,Madriz,admin,20316
Chinandega,12.6304,-87.13,Nicaragua,NIC,Chinandega,admin,139023
Ocotal,13.63,-86.473,Nicaragua,NIC,Nueva Segovia,admin,33928
Masaya,11.969,-86.095,Nicaragua,NIC,Masaya,admin,130113
Bluefields,12,-83.7649,Nicaragua,NIC,Caribe Sur,admin,44373
Rivas,11.4404,-85.82,Nicaragua,NIC,Rivas,admin,31941
Matagalpa,12.9171,-85.9167,Nicaragua,NIC,Matagalpa,admin,109089
Maastricht,50.853,5.677,Netherlands,NLD,Limburg,admin,122378
Amsterdam,52.35,4.9166,Netherlands,NLD,Noord-Holland,primary,1031000
The Hague,52.08,4.27,Netherlands,NLD,Zuid-Holland,primary,1406000
Haarlem,52.3804,4.63,Netherlands,NLD,Noord-Holland,admin,349957
Groningen,53.2204,6.58,Netherlands,NLD,Groningen,admin,216688
Middelburg,51.502,3.61,Netherlands,NLD,Zeeland,admin,46485
Lelystad,52.5176,5.474,Netherlands,NLD,Flevoland,admin,0
Arnhem,51.988,5.923,Netherlands,NLD,Gelderland,admin,141674
Assen,53,6.55,Netherlands,NLD,Drenthe,admin,62237
's-Hertogenbosch,51.6833,5.3167,Netherlands,NLD,Noord-Brabant,admin,134520
Zwolle,52.524,6.097,Netherlands,NLD,Overijssel,admin,111805
Utrecht,52.1003,5.12,Netherlands,NLD,Utrecht,admin,640000
Leeuwarden,53.2504,5.7834,Netherlands,NLD,Fryslân,admin,125778
Rotterdam,51.92,4.48,Netherlands,NLD,Zuid-Holland,minor,1005000
Eindhoven,51.43,5.5,Netherlands,NLD,Noord-Brabant,minor,398053
Tromso,69.6351,18.992,Norway,NOR,Troms,admin,52436
Molde,62.7483,7.1833,Norway,NOR,Møre og Romsdal,admin,18594
Vossavangen,60.63,6.441,Norway,NOR,Hordaland,,5571
Oslo,59.9167,10.75,Norway,NOR,Oslo,primary,835000
Lillehammer,61.1333,10.5,Norway,NOR,Oppland,admin,19542
Baerum,59.9135,11.3472,Norway,NOR,Akershus,,113659
Stavanger,58.97,5.68,Norway,NOR,Rogaland,admin,173132
Hermansverk,61.1833,6.85,Norway,NOR,Sogn og Fjordane,admin,0
Leikanger,61.1833,6.85,Norway,NOR,Sogn og Fjordane,,1965
Kristiansand,58.1666,8,Norway,NOR,Vest-Agder,admin,63814
Bergen,60.391,5.3245,Norway,NOR,Hordaland,admin,213585
Skien,59.2,9.6,Norway,NOR,Telemark,admin,73330
Arendal,58.4648,8.766,Norway,NOR,Aust-Agder,admin,30916
Hamar,60.82,11.069,Norway,NOR,Hedmark,admin,29479
Tonsberg,59.264,10.421,Norway,NOR,Vestfold,admin,38914
Drammen,59.7572,10.1907,Norway,NOR,Buskerud,admin,90722
Bodo,67.2468,14.399,Norway,NOR,Nordland,admin,34073
Haugesund,59.4119,5.2775,Norway,NOR,Rogaland,minor,40321
Svolvaer,68.2333,14.5667,Norway,NOR,Nordland,minor,4197
Narvik,68.3832,17.29,Norway,NOR,Nordland,minor,20000
Alesund,62.5454,6.388,Norway,NOR,Møre og Romsdal,minor,47772
Hammerfest,70.6613,23.688,Norway,NOR,Finnmark,minor,10000
Harstad,68.7879,16.5156,Norway,NOR,Troms,minor,19433
Finnsnes,69.2406,18.0086,Norway,NOR,Troms,minor,3907
Alta,69.9666,23.2417,Norway,NOR,Finnmark,minor,12077
Kirkenes,69.725,30.0516,Norway,NOR,Finnmark,minor,3282
Sandnes,58.8454,5.69,Norway,NOR,Rogaland,minor,46911
Gjovik,60.8,10.7,Norway,NOR,Oppland,minor,22719
Mo i Rana,66.3166,14.1667,Norway,NOR,Nordland,minor,20409
Sarpsborg,59.2833,11.1167,Norway,NOR,Østfold,admin,0
Moss,59.437,10.6692,Norway,NOR,Østfold,minor,36901
Vadso,70.0966,29.7657,Norway,NOR,Finnmark,admin,5139
Rorvik,64.868,11.2053,Norway,NOR,,minor,2615
Namsos,64.4833,11.5,Norway,NOR,,minor,9035
Trondheim,63.4167,10.4167,Norway,NOR,,minor,147139
Steinkjer,64.0171,11.5,Norway,NOR,,admin,11274
Jumla,29.25,82.2167,Nepal,NPL,,,9073
Salyan,28.35,82.1833,Nepal,NPL,,,15000
Kathmandu,27.7167,85.3166,Nepal,NPL,Bāgmatī,primary,895000
Bhairawa,27.5333,83.3833,Nepal,NPL,,,63367
Pokhara,28.264,83.972,Nepal,NPL,,,200000
Nepalganj,28.0503,81.6167,Nepal,NPL,,,64400
Hetauda,27.4167,85.0334,Nepal,NPL,,,232334
Dandeldhura,29.3,80.6,Nepal,NPL,,,19014
Baglung,28.2667,83.5833,Nepal,NPL,,,23296
Ramechhap,27.326,86.087,Nepal,NPL,Janakpur,,15000
Lalitpur,27.6666,85.3333,Nepal,NPL,,,337785
Biratnagar,26.4837,87.2833,Nepal,NPL,,,182324
Rajbiraj,26.5333,86.7333,Nepal,NPL,,,33061
Bhimphedi,27.551,85.13,Nepal,NPL,,,15000
Ilam,26.908,87.926,Nepal,NPL,,,17491
Dhangarhi,28.695,80.593,Nepal,NPL,,,92294
Birganj,27.0004,84.8666,Nepal,NPL,,,133238
Alofi,-19.0167,-169.9167,Niue,NIU,,primary,0
Masterton,-40.9439,175.6456,New Zealand,NZL,Wellington,,20200
Gore,-46.0947,168.9604,New Zealand,NZL,Southland,,9750
Te Anau,-45.4074,167.7585,New Zealand,NZL,Southland,,1857
Invercargill,-46.4094,168.365,New Zealand,NZL,Southland,,49200
Ashburton,-43.8983,171.7486,New Zealand,NZL,Canterbury,,17700
Timaru,-44.3972,171.2425,New Zealand,NZL,Canterbury,,27200
Kaikoura,-42.4012,173.6897,New Zealand,NZL,Canterbury,,2172
Christchurch,-43.535,172.63,New Zealand,NZL,Canterbury,,363200
Queenstown,-45.0227,168.7251,New Zealand,NZL,Otago,,16600
Porirua,-41.1219,174.8524,New Zealand,NZL,Wellington,,52500
Wanaka,-44.698,169.1449,New Zealand,NZL,Otago,,5037
Nelson,-41.2926,173.2474,New Zealand,NZL,Nelson,,60800
Picton,-41.2805,174.0166,New Zealand,NZL,Marlborough,,2928
Hamilton,-37.7783,175.2896,New Zealand,NZL,Waikato,,148200
Dunedin,-45.8854,170.491,New Zealand,NZL,Otago,,117700
Thames,-37.1384,175.5853,New Zealand,NZL,Waikato,,6756
Lower Hutt,-41.2037,174.9123,New Zealand,NZL,Wellington,,102400
Palmerston North,-40.3527,175.6072,New Zealand,NZL,Manawatu-Wanganui,,82400
Wanganui,-39.9326,175.0393,New Zealand,NZL,Manawatu-Wanganui,,43200
Westport,-41.7638,171.6028,New Zealand,NZL,West Coast,,3900
Hokitika,-42.7072,171.01,New Zealand,NZL,West Coast,,3078
Greymouth,-42.4716,171.2231,New Zealand,NZL,West Coast,,10100
Paraparaumu,-40.9034,174.9989,New Zealand,NZL,Wellington,,25263
Wellington,-41.3,174.7833,New Zealand,NZL,,primary,393400
Upper Hutt,-41.1355,175.029,New Zealand,NZL,Wellington,,39200
Levin,-40.6124,175.2772,New Zealand,NZL,Manawatu-Wanganui,,19550
Rotorua,-38.1317,176.2483,New Zealand,NZL,Bay of Plenty,,56200
Tauranga,-37.6964,176.1536,New Zealand,NZL,Bay of Plenty,,121500
Waitangi,-44.0263,-176.3696,New Zealand,NZL,Chatham Islands,,300
Taupo,-38.693,176.0771,New Zealand,NZL,Waikato,,22600
Whakatane,-37.9574,176.9828,New Zealand,NZL,Bay of Plenty,,18700
Kerikeri,-35.2285,173.9507,New Zealand,NZL,Northland,,5856
Whangarei,-35.7256,174.323,New Zealand,NZL,Northland,,52200
Pukekohe,-37.2015,174.9033,New Zealand,NZL,,,26300
Auckland,-36.8481,174.763,New Zealand,NZL,Auckland,,1377200
Waitakere,-36.8524,174.5543,New Zealand,NZL,Auckland,,208100
Cambridge,-37.8894,175.4703,New Zealand,NZL,Waikato,,15192
Kaitaia,-35.1099,173.2727,New Zealand,NZL,Northland,,5202
Gisborne,-38.6633,178.0181,New Zealand,NZL,Gisborne,,34300
Turangi,-38.9889,175.8142,New Zealand,NZL,Waikato,,3240
Tokoroa,-38.2245,175.8705,New Zealand,NZL,Waikato,,13350
Manukau,-37,174.885,New Zealand,NZL,Auckland,,375600
Napier,-39.49,176.9265,New Zealand,NZL,Hawke’s Bay,,57800
North Shore,-36.7913,174.7758,New Zealand,NZL,Auckland,,205605
Oban,-46.8876,168.1666,New Zealand,NZL,Southland,,310
New Plymouth,-39.0556,174.0748,New Zealand,NZL,Taranaki,,52500
Hawera,-39.5795,174.278,New Zealand,NZL,Taranaki,,11100
Kaiapoi,-43.3813,172.651,New Zealand,NZL,Canterbury,,10200
Mirbat,16.9924,54.6918,Oman,OMN,Z̧ufār,,1120
Nizwa,22.9264,57.5314,Oman,OMN,Ad Dākhilīyah,admin,72076
Ar Rustaq,23.3908,57.4244,Oman,OMN,Janūb al Bāţinah,admin,0
Hayma',19.9333,56.3167,Oman,OMN,Al Wusţá,admin,0
Sur,22.5667,59.5289,Oman,OMN,Janūb ash Sharqīyah,admin,0
Khasab,26.1799,56.2477,Oman,OMN,Musandam,admin,0
Salalah,17.0255,54.0852,Oman,OMN,Z̧ufār,admin,203877
Muscat,23.6133,58.5933,Oman,OMN,Masqaţ,primary,734697
Suhar,24.3643,56.7468,Oman,OMN,Shamāl al Bāţinah,admin,0
Ibra',22.6906,58.5334,Oman,OMN,Shamāl ash Sharqīyah,admin,0
Suhar,24.362,56.7344,Oman,OMN,Shamāl al Bāţinah,,151349
Alayat Samail,23.3032,57.9782,Oman,OMN,Ad Dākhilīyah,,47718
Ibri,23.2254,56.517,Oman,OMN,Ad Dākhilīyah,admin,101640
Al Buraymi,24.2611,55.7903,Oman,OMN,Al Buraymī,admin,0
As Sib,23.6802,58.1825,Oman,OMN,Masqaţ,,237816
Dawwah,20.633,58.908,Oman,OMN,Janūb ash Sharqīyah,,2000
Balboa,8.95,-79.5667,Panama,PAN,Panamá,,62882
Panama City,8.968,-79.533,Panama,PAN,Panamá,primary,1281000
La Chorrera,8.8803,-79.7833,Panama,PAN,Panamá Oeste,admin,0
Colon,9.365,-79.875,Panama,PAN,Colón,admin,204000
Jaque,7.519,-78.166,Panama,PAN,Darién,minor,1357
La Palma,8.3982,-78.1402,Panama,PAN,Darién,admin,1845
Penonome,8.51,-80.36,Panama,PAN,Coclé,admin,28766
Union Choco,8.0989,-77.6085,Panama,PAN,Emberá-Wounaan,admin,0
David,8.4333,-82.4333,Panama,PAN,Chiriquí,admin,110037
Puerto Armuelles,8.28,-82.87,Panama,PAN,Chiriquí,minor,27147
Santiago,8.1004,-80.9833,Panama,PAN,Veraguas,admin,45955
Las Tablas,7.7604,-80.28,Panama,PAN,Los Santos,admin,11358
Chitre,7.97,-80.42,Panama,PAN,Herrera,admin,44082
Buabidi,8.4746,-81.6983,Panama,PAN,Ngöbe-Buglé,admin,0
Bocas del Toro,9.3354,-82.2475,Panama,PAN,Bocas del Toro,admin,9883
Almirante,9.3,-82.4,Panama,PAN,Bocas del Toro,minor,8114
El Porvenir,9.5417,-78.972,Panama,PAN,Kuna Yala,admin,10
Trujillo,-8.12,-79.02,Peru,PER,La Libertad,admin,765171
Lima,-12.048,-77.0501,Peru,PER,Lima,primary,8012000
Abancay,-13.6396,-72.89,Peru,PER,Apurímac,admin,55111
Nuevo Rocafuerte,-0.9329,-75.4,Peru,PER,Loreto,,40
Arequipa,-16.42,-71.53,Peru,PER,Arequipa,admin,815000
Huaura,-11.06,-77.6,Peru,PER,Lima,,40400
Tournavista,-8.9322,-74.7052,Peru,PER,Huánuco,,511
Jaen,-5.7096,-78.81,Peru,PER,Cajamarca,,52493
Huamachuco,-7.81,-78.0499,Peru,PER,La Libertad,,30835
Chiclayo,-6.7629,-79.8366,Peru,PER,Lambayeque,admin,596792
Motupe,-6.15,-79.71,Peru,PER,Lambayeque,,13681
Lamas,-6.43,-76.52,Peru,PER,San Martín,,13693
Juanjui,-7.1696,-76.74,Peru,PER,San Martín,,37715
Olmos,-5.9796,-79.75,Peru,PER,Lambayeque,,9800
Moyobamba,-6.0496,-76.9667,Peru,PER,San Martín,admin,47734
Tarapoto,-6.51,-76.48,Peru,PER,San Martín,,936
Chulucanas,-5.0896,-80.17,Peru,PER,Piura,,68835
Huaraz,-9.53,-77.53,Peru,PER,Ancash,admin,86934
Chota,-6.5496,-78.65,Peru,PER,Cajamarca,,14240
Callao,-12.07,-77.135,Peru,PER,Callao,admin,876877
Tarma,-11.41,-75.73,Peru,PER,Junín,,51350
Ilave,-16.0796,-69.67,Peru,PER,Puno,,16033
Puno,-15.8329,-70.0333,Peru,PER,Puno,admin,116552
Urubamba,-13.3042,-72.1166,Peru,PER,Cusco,,7540
La Oroya,-11.52,-75.94,Peru,PER,Junín,,33345
San Ramon,-11.1296,-75.34,Peru,PER,Junín,,14708
Cerro de Pasco,-10.69,-76.27,Peru,PER,Pasco,admin,137232
Jauja,-11.7996,-75.5,Peru,PER,Junín,,21057
Cajamarca,-7.15,-78.53,Peru,PER,Cajamarca,admin,142665
Satipo,-11.26,-74.69,Peru,PER,Junín,,15532
Ilo,-17.64,-71.34,Peru,PER,Moquegua,,53476
Gueppi,-0.1166,-75.23,Peru,PER,Loreto,,10
Otuzco,-7.9,-78.57,Peru,PER,La Libertad,,10134
Moquegua,-17.19,-70.94,Peru,PER,Moquegua,admin,54517
Andoas,-2.9021,-76.4025,Peru,PER,Loreto,,10
Salaverry,-8.22,-78.99,Peru,PER,La Libertad,,10066
Pativilca,-10.6996,-77.8,Peru,PER,Lima,,31905
Soldado Bartra,-2.5161,-75.7666,Peru,PER,Loreto,,10
Puca Urco,-2.3328,-71.9167,Peru,PER,Loreto,,10
Tumbes,-3.57,-80.46,Peru,PER,Tumbes,admin,109223
Ica,-14.068,-75.7255,Peru,PER,Ica,admin,279420
Sullana,-4.8896,-80.68,Peru,PER,Piura,,160789
Cusco,-13.525,-71.9722,Peru,PER,Cusco,admin,361182
Santo Tomas,-14.46,-72.08,Peru,PER,Cusco,,4134
Puquio,-14.7,-74.13,Peru,PER,Ayacucho,,10491
Juliaca,-15.5,-70.14,Peru,PER,Puno,,245675
Huancayo,-12.08,-75.2,Peru,PER,Junín,admin,412733
Piura,-5.21,-80.63,Peru,PER,Piura,admin,396932
Paita,-5.09,-81.12,Peru,PER,Piura,,56151
Tingo Maria,-9.2896,-75.99,Peru,PER,Huánuco,,53177
Huanuco,-9.92,-76.24,Peru,PER,Huánuco,admin,158145
Sicuani,-14.2896,-71.23,Peru,PER,Cusco,,33575
Desaguadero,-16.5646,-69.045,Peru,PER,Puno,,5329
Cajabamba,-7.6196,-78.04,Peru,PER,Cajamarca,,13486
Putina,-15.47,-69.43,Peru,PER,Puno,,8118
Pacasmayo,-7.4006,-79.5706,Peru,PER,La Libertad,,39282
Caballococha,-3.9163,-70.5083,Peru,PER,Loreto,,3195
Tocache,-8.1796,-76.52,Peru,PER,San Martín,,29029
Pucallpa,-8.3689,-74.535,Peru,PER,Ucayali,admin,310750
Junin,-11.1496,-76.01,Peru,PER,Junín,,15320
Camana,-16.6196,-72.72,Peru,PER,Arequipa,,20956
Chincha Alta,-13.4196,-76.14,Peru,PER,Ica,,153076
Nauta,-4.57,-73.78,Peru,PER,Loreto,,2500
Iquitos,-3.75,-73.25,Peru,PER,Loreto,admin,458729
Puerto Maldonado,-12.6,-69.1833,Peru,PER,Madre de Dios,admin,67155
Requena,-5.0696,-73.91,Peru,PER,Loreto,,18000
Casma,-9.44,-78.21,Peru,PER,Ancash,,30000
Ayaviri,-14.8796,-70.6,Peru,PER,Puno,,19310
Chosica,-11.93,-76.71,Peru,PER,Lima,,88606
Ayacucho,-13.175,-74.22,Peru,PER,Ayacucho,admin,166314
Huancavelica,-12.79,-74.99,Peru,PER,Huancavelica,admin,44388
Huanta,-12.9496,-74.25,Peru,PER,Ayacucho,,18627
Chilca,-12.5196,-76.74,Peru,PER,Lima,,12884
Chancay,-11.5596,-77.27,Peru,PER,Lima,,26958
Chimbote,-9.07,-78.57,Peru,PER,Ancash,,349846
Nasca,-14.83,-74.94,Peru,PER,Ica,,23556
Mollendo,-17.02,-72.02,Peru,PER,Arequipa,,49033
Huarmey,-10.0696,-78.16,Peru,PER,Ancash,,16172
Santiago,-14.1896,-75.74,Peru,PER,Ica,,10449
Coracora,-15.0196,-73.79,Peru,PER,Ayacucho,,7420
Pimentel,-6.8296,-79.93,Peru,PER,Lambayeque,,15552
Ferrenafe,-6.63,-79.8,Peru,PER,Lambayeque,,50184
Talara,-4.58,-81.28,Peru,PER,Piura,,99074
Sechura,-5.5596,-80.82,Peru,PER,Piura,,23020
Pisco,-13.71,-76.22,Peru,PER,Ica,,81207
Contamana,-7.34,-75.02,Peru,PER,Loreto,minor,18921
Chachapoyas,-6.2296,-77.87,Peru,PER,Amazonas,admin,25978
Huacho,-11.11,-77.6199,Peru,PER,Lima,admin,80474
Tacna,-18,-70.25,Peru,PER,Tacna,admin,280098
Papeete,-17.5334,-149.5667,French Polynesia,PYF,,primary,131695
Port Moresby,-9.4647,147.1925,Papua New Guinea,PNG,National Capital,primary,283733
Kieta,-6.2163,155.6333,Papua New Guinea,PNG,Bougainville,,6958
Sohano,-5.4297,154.6711,Papua New Guinea,PNG,Bougainville,,2338
Wewak,-3.5535,143.6367,Papua New Guinea,PNG,East Sepik,,25143
Kavieng,-2.5813,150.813,Papua New Guinea,PNG,New Ireland,,19728
Lorengau,-2.032,147.28,Papua New Guinea,PNG,Manus,,5806
Hoskins,-5.4746,150.41,Papua New Guinea,PNG,West New Britain,,871
Abau,-10.0426,148.565,Papua New Guinea,PNG,Central,,230
Kimbe,-5.55,150.143,Papua New Guinea,PNG,West New Britain,,18847
Alotau,-10.3021,150.4591,Papua New Guinea,PNG,Milne Bay,,11624
Daru,-9.1092,143.2337,Papua New Guinea,PNG,Western,,15214
Mt. Hagen,-5.8632,144.2168,Papua New Guinea,PNG,Western Highlands,,59064
Lae,-6.733,146.99,Papua New Guinea,PNG,Morobe,,131052
Goroka,-6.0833,145.3855,Papua New Guinea,PNG,Eastern Highlands,,39699
Madang,-5.2248,145.7853,Papua New Guinea,PNG,Madang,,62023
Arawa,-6.228,155.566,Papua New Guinea,PNG,Bougainville,,40266
Kerema,-7.927,145.838,Papua New Guinea,PNG,Gulf,,5646
Vanimo,-2.69,141.304,Papua New Guinea,PNG,West Sepik,,11204
Rabaul,-4.2055,152.1434,Papua New Guinea,PNG,East New Britain,,8074
Popondetta,-8.7692,148.2484,Papua New Guinea,PNG,Northern,,28198
Wabag,-5.49,143.718,Papua New Guinea,PNG,Enga,,3958
Mendi,-6.1444,143.6452,Papua New Guinea,PNG,Southern Highlands,,26252
Kundiawa,-6.023,144.96,Papua New Guinea,PNG,Chimbu,,9383
Alabel,6.1018,125.2905,Philippines,PHL,Sarangani,admin,0
Ozamis,8.1462,123.8444,Philippines,PHL,Misamis Occidental,,97806
Laoag,18.1988,120.5936,Philippines,PHL,Ilocos Norte,admin,207048
Marawi City,8.0034,124.2839,Philippines,PHL,Lanao del Sur,admin,0
Cadiz,10.9587,123.3086,Philippines,PHL,Negros Occidental,,283157
Malaybalay,8.1575,125.1278,Philippines,PHL,Bukidnon,admin,0
Calbayog,12.0672,124.6042,Philippines,PHL,Samar,,67921
Gingoog,8.8304,125.13,Philippines,PHL,Misamis Oriental,,218
Tagum,7.3821,125.8017,Philippines,PHL,Davao del Norte,,6726
Roxas,11.5853,122.7511,Philippines,PHL,Capiz,admin,102688
San Pablo,14.0696,121.3226,Philippines,PHL,Laguna,,240830
San Carlos,10.5504,123.38,Philippines,PHL,Negros Occidental,,6353
City of Isabela,6.7041,121.9712,Philippines,PHL,Basilan,admin,0
Cabanatuan,15.5021,120.9617,Philippines,PHL,Nueva Ecija,,220250
Baguio City,16.43,120.5699,Philippines,PHL,Baguio,admin,447824
Manila,14.6042,120.9822,Philippines,PHL,,primary,11100000
Makati City,14.5501,121.036,Philippines,PHL,Makati,admin,0
Pasig City,14.5604,121.0812,Philippines,PHL,Pasig,admin,0
City of Paranaque,14.4978,120.9907,Philippines,PHL,Parañaque,admin,0
Baler,15.7589,121.5607,Philippines,PHL,Aurora,admin,0
Bangued,17.5982,120.6155,Philippines,PHL,Abra,admin,0
Balanga,14.6761,120.5361,Philippines,PHL,Bataan,admin,0
Boac,13.4463,121.84,Philippines,PHL,Marinduque,admin,0
Malita,6.415,125.6117,Philippines,PHL,Davao Occidental,admin,0
Malolos,14.8443,120.8104,Philippines,PHL,Bulacan,admin,0
Mati,6.9551,126.2166,Philippines,PHL,Davao Oriental,admin,0
Batangas,13.7817,121.0217,Philippines,PHL,Batangas,admin,424508
Bayombong,16.4812,121.1497,Philippines,PHL,Nueva Vizcaya,admin,0
Angeles,15.1451,120.5451,Philippines,PHL,Angeles,admin,314493
Bacolod,10.6317,122.9817,Philippines,PHL,Bacolod,admin,949354
Mandaue City,10.3237,123.9436,Philippines,PHL,Mandaue,admin,0
Bongao,5.0292,119.7731,Philippines,PHL,Tawi-Tawi,admin,0
Bontoc,17.0899,120.978,Philippines,PHL,Mountain,admin,0
Borongan,11.6081,125.4319,Philippines,PHL,Eastern Samar,admin,0
Butuan,8.9495,125.5436,Philippines,PHL,Butuan,admin,190557
Cabadbaran,9.1236,125.5344,Philippines,PHL,Agusan del Norte,admin,0
Cabarroguis,16.5111,121.5212,Philippines,PHL,Quirino,admin,0
Cagayan de Oro,8.4508,124.6853,Philippines,PHL,Cagayan de Oro,admin,1121561
Calapan,13.4108,121.1797,Philippines,PHL,Oriental Mindoro,admin,0
Caloocan City,14.6492,120.9826,Philippines,PHL,Caloocan,admin,0
Catarman,12.4989,124.6377,Philippines,PHL,Northern Samar,admin,0
Catbalogan,11.7753,124.8861,Philippines,PHL,Samar,admin,0
Cebu,10.32,123.9001,Philippines,PHL,Cebu,admin,815000
Cotabato,7.2169,124.2484,Philippines,PHL,Cotabato,admin,279519
Daet,14.1122,122.9553,Philippines,PHL,Camarines Norte,admin,0
Dagupan,16.0479,120.3408,Philippines,PHL,Dagupan,admin,163676
Davao,7.11,125.63,Philippines,PHL,Davao,admin,1402000
Digos,6.7497,125.3572,Philippines,PHL,Davao del Sur,admin,0
Dipolog,8.5883,123.3409,Philippines,PHL,Zamboanga del Norte,admin,0
Dumaguete City,9.307,123.3074,Philippines,PHL,Negros Oriental,admin,0
General Santos,6.1108,125.1747,Philippines,PHL,General Santos,admin,950530
Iba,15.3276,119.978,Philippines,PHL,Zambales,admin,0
Ilagan,17.1485,121.8892,Philippines,PHL,Isabela,admin,0
Iligan,8.1712,124.2154,Philippines,PHL,Iligan,admin,464599
Iloilo,10.705,122.545,Philippines,PHL,Iloilo,admin,387681
Ipil,7.7844,122.5861,Philippines,PHL,Zamboanga Sibugay,admin,0
Jolo,6.0522,121.0022,Philippines,PHL,Sulu,admin,0
Jordan,10.6584,122.5963,Philippines,PHL,Guimaras,admin,0
Kabugao,18.0231,121.184,Philippines,PHL,Apayao,admin,0
Kalibo,11.7086,122.3648,Philippines,PHL,Aklan,admin,0
Kidapawan,7.0083,125.0894,Philippines,PHL,Cotabato,admin,0
Lagawe,16.8,121.1192,Philippines,PHL,Ifugao,admin,0
La Trinidad,16.4556,120.5903,Philippines,PHL,Benguet,admin,0
Lapu-Lapu City,10.3103,123.9494,Philippines,PHL,Lapu-Lapu,admin,0
Legazpi,13.17,123.75,Philippines,PHL,Albay,admin,320081
Lingayen,16.0218,120.2319,Philippines,PHL,Pangasinan,admin,0
Lucena,13.9348,121.6127,Philippines,PHL,Lucena,admin,0
Maasin,10.1336,124.8447,Philippines,PHL,Southern Leyte,admin,0
Malabon,14.6691,120.972,Philippines,PHL,Malabon,admin,0
Mambajao,9.2504,124.7156,Philippines,PHL,Camiguin,admin,0
Mamburao,13.2233,120.596,Philippines,PHL,Occidental Mindoro,admin,0
Mandaluyong City,14.5832,121.0409,Philippines,PHL,Mandaluyong,admin,0
Marikina City,14.6414,121.1118,Philippines,PHL,Marikina,admin,0
Masbate,12.3687,123.6225,Philippines,PHL,Masbate,admin,0
Muntinlupa City,14.4135,121.0263,Philippines,PHL,Muntinlupa,admin,0
Nabunturan,7.6029,125.9629,Philippines,PHL,Compostela Valley,admin,0
Naga,13.6192,123.1814,Philippines,PHL,Naga,admin,741635
Naval,11.5612,124.3952,Philippines,PHL,Biliran,admin,0
Navotas,14.6477,120.9591,Philippines,PHL,Navotas,admin,0
Olongapo,14.8296,120.2828,Philippines,PHL,Olongapo,admin,304388
Ormac,11.0643,124.6075,Philippines,PHL,Ormoc,admin,167584
Oroquieta,8.4859,123.8048,Philippines,PHL,Misamis Occidental,admin,0
Pagadian,7.853,123.507,Philippines,PHL,Zamboanga del Sur,admin,159590
Palayan City,15.5415,121.0848,Philippines,PHL,Nueva Ecija,admin,0
Pasay City,14.5504,121,Philippines,PHL,Pasay,admin,403064
Pili,13.7177,123.7448,Philippines,PHL,Camarines Sur,admin,0
Prosperidad,8.58,125.8964,Philippines,PHL,Agusan del Sur,admin,0
Puerto Princesa,9.7543,118.7444,Philippines,PHL,Puerto Princesa,admin,157144
Quezon City,14.6504,121.03,Philippines,PHL,Quezon,admin,2761720
Romblon,12.5751,122.2708,Philippines,PHL,Romblon,admin,0
San Fernando,16.6186,120.3194,Philippines,PHL,La Union,admin,0
San Fernando,15.0343,120.6844,Philippines,PHL,Pampanga,admin,0
San Jose,10.18,125.5683,Philippines,PHL,Dinagat Islands,admin,0
San Juan,14.6,121.0333,Philippines,PHL,San Juan,admin,0
Santa Cruz,14.1167,121.2833,Philippines,PHL,Laguna,admin,0
Santiago,16.6881,121.5472,Philippines,PHL,Santiago,admin,0
Shariff Aguak,6.8647,124.4417,Philippines,PHL,Maguindanao,admin,0
Siquijor,9.2142,123.515,Philippines,PHL,Siquijor,admin,0
Sorsogon,12.9708,124.0053,Philippines,PHL,Sorsogon,admin,0
Surigao,9.7843,125.4888,Philippines,PHL,Surigao del Norte,admin,87832
Tabuk,17.4084,121.2785,Philippines,PHL,Kalinga,admin,0
Tacloban,11.2504,125,Philippines,PHL,Tacloban,admin,280006
Taguig City,14.5289,121.0723,Philippines,PHL,Taguig,admin,0
Tagum,7.4475,125.8094,Philippines,PHL,Davao del Norte,admin,0
Tandag,9.0783,126.1986,Philippines,PHL,Surigao del Sur,admin,0
Tarlac,15.4838,120.5834,Philippines,PHL,Tarlac,admin,183930
Trece Martires City,14.2832,120.8677,Philippines,PHL,Cavite,admin,0
Tubod,8.0555,123.7904,Philippines,PHL,Lanao del Norte,admin,0
Tuguegarao,17.6131,121.7269,Philippines,PHL,Cagayan,admin,115105
Valenzuela,14.6936,120.9656,Philippines,PHL,Valenzuela,admin,0
Vigan,17.5747,120.3869,Philippines,PHL,Ilocos Sur,admin,48545
Virac,13.5848,124.2374,Philippines,PHL,Catanduanes,admin,0
Zamboanga,6.92,122.08,Philippines,PHL,Zamboanga,admin,773000
San Jose,10.745,121.9415,Philippines,PHL,Antique,admin,0
Basco,20.4486,121.9702,Philippines,PHL,Batanes,admin,0
Antipolo,14.5886,121.1757,Philippines,PHL,Rizal,admin,0
Koronadal,6.2541,124.9922,Philippines,PHL,South Cotabato,admin,0
Isulan,6.6294,124.6051,Philippines,PHL,Sultan Kudarat,admin,0
Karachi,24.87,66.99,Pakistan,PAK,Sindh,admin,12130000
Gilgit,35.9171,74.3,Pakistan,PAK,Gilgit-Baltistan,minor,216760
Chaman,30.925,66.4463,Pakistan,PAK,Balochistān,,88568
Turbat,25.9918,63.0718,Pakistan,PAK,Balochistān,,147791
Islamabad,33.7,73.1666,Pakistan,PAK,Islāmābād,primary,780000
Zhob,31.349,69.4386,Pakistan,PAK,Balochistān,minor,88356
Quetta,30.22,67.025,Pakistan,PAK,Balochistān,admin,768000
Hyderabad,25.38,68.375,Pakistan,PAK,Sindh,,1459000
Mardan,34.2,72.04,Pakistan,PAK,Khyber Pakhtunkhwa,minor,300424
